 [
  {
  "id":145237,
  "name":"The Tap Trailhouse",
  "address":"17 Union St",
  "city":"Boston",
  "state":"MA",
  "area":"Boston / New England",
  "postal_code":"02108",
  "country":"US",
  "phone":"6173670033",
  "lat":42.360847,
  "long":-71.056819,
  "price":2,
  "cuisines":[
              "Brewery",
              "Burgers",
              "American"
              ],
  "reserve_url":"http://www.opentable.com/single.aspx?rid=145237",
  "mobile_reserve_url":"http://mobile.opentable.com/opentable/?restId=145237",
  "image_url":"https://resizer.otstatic.com/v2/profiles/legacy/145237.jpg"
  },
  {
  "id":28066,
  "name":"o ya",
  "address":"9 East Street",
  "city":"Boston",
  "state":"MA",
  "area":"Boston / New England",
  "postal_code":"02111",
  "country":"US",
  "phone":"(617) 654-9900",
  "lat":42.351353,
  "long":-71.056941,
  "price":4,
  "cuisines":[
              "Japanese",
              "Sushi",
              "International"
              ],
  "reserve_url":"http://www.opentable.com/single.aspx?rid=28066",
  "mobile_reserve_url":"http://mobile.opentable.com/opentable/?restId=28066",
  "image_url":"https://resizer.otstatic.com/v2/profiles/legacy/28066.jpg"
  },
  {
  "id":11656,
  "name":"Skipjack's Boston",
  "address":"199 Clarendon St.",
  "city":"Boston",
  "state":"MA",
  "area":"Boston / New England",
  "postal_code":"02116",
  "country":"US",
  "phone":"6175363500x",
  "lat":42.349887,
  "long":-71.07484,
  "price":2,
  "cuisines":[
              "American",
              "Burgers",
              "Brewery"
              ],
  "reserve_url":"http://www.opentable.com/single.aspx?rid=11656",
  "mobile_reserve_url":"http://mobile.opentable.com/opentable/?restId=11656",
  "image_url":"https://resizer.otstatic.com/v2/profiles/legacy/11656.jpg"
  },
  {
  "id":1635,
  "name":"Elephant Walk, The - Boston",
  "address":"900 Beacon Street",
  "city":"Boston",
  "state":"MA",
  "area":"Boston / New England",
  "postal_code":"02215",
  "country":"US",
  "phone":"6172471500",
  "lat":42.346541,
  "long":-71.105827,
  "price":2,
  "cuisines":[
              "Panasian",
              "Vietnamese",
              "International"
              ],
  "reserve_url":"http://www.opentable.com/single.aspx?rid=1635",
  "mobile_reserve_url":"http://mobile.opentable.com/opentable/?restId=1635",
  "image_url":"https://resizer.otstatic.com/v2/profiles/legacy/1635.jpg"
  },
  {
  "id":2829,
  "name":"Metropolis Cafe",
  "address":"584 Tremont Street",
  "city":"Boston",
  "state":"MA",
  "area":"Boston / New England",
  "postal_code":"02118",
  "country":"US",
  "phone":"6172472931x",
  "lat":42.3432,
  "long":-71.0727,
  "price":2,
  "cuisines":[
              "Mediterranean",
              "International",
              "Tapas"
              ],
  "reserve_url":"http://www.opentable.com/single.aspx?rid=2829",
  "mobile_reserve_url":"http://mobile.opentable.com/opentable/?restId=2829",
  "image_url":"https://resizer.otstatic.com/v2/profiles/legacy/2829.jpg"
  },
  {
  "id":7080,
  "name":"Rustic Kitchen",
  "address":"210 Stuart Street",
  "city":"Boston",
  "state":"MA",
  "area":"Boston / New England",
  "postal_code":"02116",
  "country":"US",
  "phone":"617-423-5700x",
  "lat":42.350651,
  "long":-71.068105,
  "price":2,
  "cuisines":[
              "Prime Rib",
              "Burgers",
              "Steak"
              ],
  "reserve_url":"http://www.opentable.com/single.aspx?rid=7080",
  "mobile_reserve_url":"http://mobile.opentable.com/opentable/?restId=7080",
  "image_url":"https://resizer.otstatic.com/v2/profiles/legacy/7080.jpg"
  },
  {
  "id":5089,
  "name":"Vinoteca di Monica",
  "address":"143 Richmond St.",
  "city":"Boston",
  "state":"MA",
  "area":"Boston / New England",
  "postal_code":"02109",
  "country":"US",
  "phone":"6172270311",
  "lat":42.363259,
  "long":-71.054328,
  "price":2,
  "cuisines":[
              "Italian",
              "Seafood",
              "Wine"
              ],
  "reserve_url":"http://www.opentable.com/single.aspx?rid=5089",
  "mobile_reserve_url":"http://mobile.opentable.com/opentable/?restId=5089",
  "image_url":"https://resizer.otstatic.com/v2/profiles/legacy/5089.jpg"
  },
  {
  "id":15913,
  "name":"Artisan Bistro",
  "address":"10 Avery Street",
  "city":"Boston",
  "state":"MA",
  "area":"Boston / New England",
  "postal_code":"02111",
  "country":"US",
  "phone":"6175747176x",
  "lat":42.35328,
  "long":-71.062902,
  "price":2,
  "cuisines":[
              "Bistro",
              "Burgers",
              "Continental"
              ],
  "reserve_url":"http://www.opentable.com/single.aspx?rid=15913",
  "mobile_reserve_url":"http://mobile.opentable.com/opentable/?restId=15913",
  "image_url":"https://resizer.otstatic.com/v2/profiles/legacy/15913.jpg"
  },
  {
  "id":144880,
  "name":"The Butcher Shop",
  "address":"552 Tremont Street",
  "city":"Boston",
  "state":"MA",
  "area":"Boston / New England",
  "postal_code":"02118",
  "country":"US",
  "phone":"6174234800x",
  "lat":42.34376,
  "long":-71.071454,
  "price":2,
  "cuisines":[
              "Steak",
              "Seafood",
              "American"
              ],
  "reserve_url":"http://www.opentable.com/single.aspx?rid=144880",
  "mobile_reserve_url":"http://mobile.opentable.com/opentable/?restId=144880",
  "image_url":"https://resizer.otstatic.com/v2/profiles/legacy/144880.jpg"
  },
  {
  "id":2642,
  "name":"Troquet",
  "address":"140 Boylston Street",
  "city":"Boston",
  "state":"MA",
  "area":"Boston / New England",
  "postal_code":"02116",
  "country":"US",
  "phone":"6176959463",
  "lat":42.3525,
  "long":-71.0665,
  "price":3,
  "cuisines":[
              "Spanish",
              "Seafood",
              "South American"
              ],
  "reserve_url":"http://www.opentable.com/single.aspx?rid=2642",
  "mobile_reserve_url":"http://mobile.opentable.com/opentable/?restId=2642",
  "image_url":"https://resizer.otstatic.com/v2/profiles/legacy/2642.jpg"
  },
  {
  "id":5907,
  "name":"Terramia",
  "address":"98 Salem St., North End",
  "city":"Boston",
  "state":"MA",
  "area":"Boston / New England",
  "postal_code":"02113",
  "country":"US",
  "phone":"6175233112x",
  "lat":42.364088,
  "long":-71.055597,
  "price":3,
  "cuisines":[
              "Italian",
              "Pizza",
              "Brewery"
              ],
  "reserve_url":"http://www.opentable.com/single.aspx?rid=5907",
  "mobile_reserve_url":"http://mobile.opentable.com/opentable/?restId=5907",
  "image_url":"https://resizer.otstatic.com/v2/profiles/legacy/5907.jpg"
  },
  {
  "id":2827,
  "name":"Rowes Wharf Sea Grille",
  "address":"70 Rowes Wharf",
  "city":"Boston",
  "state":"MA",
  "area":"Boston / New England",
  "postal_code":"02110",
  "country":"US",
  "phone":"6178567744",
  "lat":42.3565,
  "long":-71.0507,
  "price":2,
  "cuisines":[
              "Seafood",
              "Steak",
              "American"
              ],
  "reserve_url":"http://www.opentable.com/single.aspx?rid=2827",
  "mobile_reserve_url":"http://mobile.opentable.com/opentable/?restId=2827",
  "image_url":"https://resizer.otstatic.com/v2/profiles/legacy/2827.jpg"
  },
  {
  "id":27181,
  "name":"Amici Restaurant",
  "address":"111 North Washington Street",
  "city":"Boston",
  "state":"MA",
  "area":"Boston / New England",
  "postal_code":"02114",
  "country":"US",
  "phone":"6177422998",
  "lat":42.365596,
  "long":-71.058129,
  "price":2,
  "cuisines":[
              "Italian",
              "Pizza",
              "Sushi"
              ],
  "reserve_url":"http://www.opentable.com/single.aspx?rid=27181",
  "mobile_reserve_url":"http://mobile.opentable.com/opentable/?restId=27181",
  "image_url":"https://resizer.otstatic.com/v2/profiles/legacy/27181.jpg"
  },
  {
  "id":44404,
  "name":"Basho Japanese Brasserie",
  "address":"1338 Boylston Street",
  "city":"Boston",
  "state":"MA",
  "area":"Boston / New England",
  "postal_code":"02215",
  "country":"US",
  "phone":"6172621338",
  "lat":42.344115,
  "long":-71.099409,
  "price":3,
  "cuisines":[
              "Japanese",
              "Seafood",
              "Sushi"
              ],
  "reserve_url":"http://www.opentable.com/single.aspx?rid=44404",
  "mobile_reserve_url":"http://mobile.opentable.com/opentable/?restId=44404",
  "image_url":"https://resizer.otstatic.com/v2/profiles/legacy/44404.jpg"
  },
  {
  "id":35197,
  "name":"Post 390",
  "address":"406 Stuart Street",
  "city":"Boston",
  "state":"MA",
  "area":"Boston / New England",
  "postal_code":"02116",
  "country":"US",
  "phone":"6173990015",
  "lat":42.348855,
  "long":-71.073514,
  "price":3,
  "cuisines":[
              "Caribbean",
              "Seafood",
              "International"
              ],
  "reserve_url":"http://www.opentable.com/single.aspx?rid=35197",
  "mobile_reserve_url":"http://mobile.opentable.com/opentable/?restId=35197",
  "image_url":"https://resizer.otstatic.com/v2/profiles/legacy/35197.jpg"
  },
  {
  "id":141514,
  "name":"Scholars Bar & Lounge",
  "address":"25 School Street",
  "city":"Boston",
  "state":"MA",
  "area":"Boston / New England",
  "postal_code":"02108",
  "country":"US",
  "phone":"6172480025x",
  "lat":42.357552,
  "long":-71.059113,
  "price":2,
  "cuisines":[
              "Bar",
              "Seafood",
              "American"
              ],
  "reserve_url":"http://www.opentable.com/single.aspx?rid=141514",
  "mobile_reserve_url":"http://mobile.opentable.com/opentable/?restId=141514",
  "image_url":"https://resizer.otstatic.com/v2/profiles/legacy/141514.jpg"
  },
  {
  "id":71914,
  "name":"Merengue Restaurant",
  "address":"156 Blue Hill Ave",
  "city":"Boston",
  "state":"MA",
  "area":"Boston / New England",
  "postal_code":"02119",
  "country":"US",
  "phone":"6174455403",
  "lat":42.31917,
  "long":-71.077659,
  "price":2,
  "cuisines":[
              "Latin",
              "Spanish",
              "Tapas"
              ],
  "reserve_url":"http://www.opentable.com/single.aspx?rid=71914",
  "mobile_reserve_url":"http://mobile.opentable.com/opentable/?restId=71914",
  "image_url":"https://resizer.otstatic.com/v2/profiles/legacy/71914.jpg"
  },
  {
  "id":56740,
  "name":"Riccardo's",
  "address":"175 North Street",
  "city":"Boston",
  "state":"MA",
  "area":"Boston / New England",
  "postal_code":"02113",
  "country":"US",
  "phone":"6177203994x",
  "lat":42.363236,
  "long":-71.053767,
  "price":2,
  "cuisines":[
              "Italian",
              "Seafood",
              "Pizza"
              ],
  "reserve_url":"http://www.opentable.com/single.aspx?rid=56740",
  "mobile_reserve_url":"http://mobile.opentable.com/opentable/?restId=56740",
  "image_url":"https://resizer.otstatic.com/v2/profiles/legacy/56740.jpg"
  },
  {
  "id":98821,
  "name":"Abby Lane",
  "address":"255 Tremont St",
  "city":"Boston",
  "state":"MA",
  "area":"Boston / New England",
  "postal_code":"02116",
  "country":"US",
  "phone":"6174512229x",
  "lat":42.350268,
  "long":-71.065178,
  "cuisines":[
              "Brewery",
              "Seafood",
              "Burgers"
              ],
  "reserve_url":"http://www.opentable.com/single.aspx?rid=98821",
  "mobile_reserve_url":"http://mobile.opentable.com/opentable/?restId=98821",
  "image_url":"https://resizer.otstatic.com/v2/profiles/legacy/98821.jpg"
  },
  {
  "id":2050,
  "name":"The Capital Grille - Boston",
  "address":"900 Boylston Street",
  "city":"Boston",
  "state":"MA",
  "area":"Boston / New England",
  "postal_code":"02115",
  "country":"US",
  "phone":"6172628900x",
  "lat":42.348225,
  "long":-71.084266,
  "cuisines":[
              "Steak",
              "Seafood",
              "Prime Rib"
              ],
  "reserve_url":"http://www.opentable.com/single.aspx?rid=2050",
  "mobile_reserve_url":"http://mobile.opentable.com/opentable/?restId=2050",
  "image_url":"https://resizer.otstatic.com/v2/profiles/legacy/2050.jpg"
  },
  {
  "id":147616,
  "name":"Salvatore's-Boston Seaport",
  "address":"225 Northern Ave",
  "city":"Boston",
  "state":"MA",
  "area":"Boston / New England",
  "postal_code":"02210",
  "country":"US",
  "phone":"6177375454x",
  "lat":42.348484,
  "long":-71.038763,
  "price":2,
  "cuisines":[
              "Peruvian",
              "Seafood",
              "Continental"
              ],
  "reserve_url":"http://www.opentable.com/single.aspx?rid=147616",
  "mobile_reserve_url":"http://mobile.opentable.com/opentable/?restId=147616",
  "image_url":"https://resizer.otstatic.com/v2/profiles/legacy/147616.jpg"
  },
  {
  "id":47671,
  "name":"Back Bay Social Club",
  "address":"867 Boylston Street",
  "city":"Boston",
  "state":"MA",
  "area":"Boston / New England",
  "postal_code":"02116",
  "country":"US",
  "phone":"6172473200",
  "lat":42.348632,
  "long":-71.083478,
  "price":2,
  "cuisines":[
              "Bar",
              "Tapas",
              "Wine"
              ],
  "reserve_url":"http://www.opentable.com/single.aspx?rid=47671",
  "mobile_reserve_url":"http://mobile.opentable.com/opentable/?restId=47671",
  "image_url":"https://resizer.otstatic.com/v2/profiles/legacy/47671.jpg"
  },
  {
  "id":7831,
  "name":"Miel",
  "address":"510 Atlantic Ave.",
  "city":"Boston",
  "state":"MA",
  "area":"Boston / New England",
  "postal_code":"02210",
  "country":"US",
  "phone":"6172175151x",
  "lat":42.353903,
  "long":-71.053073,
  "price":2,
  "cuisines":[
              "French",
              "Seafood",
              "Continental"
              ],
  "reserve_url":"http://www.opentable.com/single.aspx?rid=7831",
  "mobile_reserve_url":"http://mobile.opentable.com/opentable/?restId=7831",
  "image_url":"https://resizer.otstatic.com/v2/profiles/legacy/7831.jpg"
  },
  {
  "id":13903,
  "name":"Atlantic Fish",
  "address":"761 Boylston Street",
  "city":"Boston",
  "state":"MA",
  "area":"Boston / New England",
  "postal_code":"02116",
  "country":"US",
  "phone":"6172674000",
  "lat":42.349104,
  "long":-71.080978,
  "price":2,
  "cuisines":[
              "Organic",
              "Seafood",
              "Southern"
              ],
  "reserve_url":"http://www.opentable.com/single.aspx?rid=13903",
  "mobile_reserve_url":"http://mobile.opentable.com/opentable/?restId=13903",
  "image_url":"https://resizer.otstatic.com/v2/profiles/legacy/13903.jpg"
  },
  {
  "id":146548,
  "name":"Saray restaurant",
  "address":"1098 Commonwealth Ave",
  "city":"Boston",
  "state":"MA",
  "area":"Boston / New England",
  "postal_code":"02215",
  "country":"US",
  "phone":"6173836651",
  "lat":42.351876,
  "long":-71.124338,
  "price":2,
  "cuisines":[
              "Panasian",
              "Seafood",
              "International"
              ],
  "reserve_url":"http://www.opentable.com/single.aspx?rid=146548",
  "mobile_reserve_url":"http://mobile.opentable.com/opentable/?restId=146548",
  "image_url":"https://resizer.otstatic.com/v2/profiles/legacy/146548.jpg"
  }
  ]
