[
   {
      "id":104173,
      "name":"Badmaash",
      "address":"108 West 2nd Street #104",
      "city":"Los Angeles",
      "state":"CA",
      "area":"Los Angeles / Orange County",
      "postal_code":"90012",
      "country":"US",
      "phone":"2132217466x",
      "lat":34.051061,
      "long":-118.244705,
      "price":2,
      "cuisines":[
                  "Panasian",
                  "Seafood",
                  "Vietnamese"
                  ],
      "reserve_url":"http://www.opentable.com/single.aspx?rid=104173",
      "mobile_reserve_url":"http://mobile.opentable.com/opentable/?restId=104173",
      "image_url":"https://resizer.otstatic.com/v2/profiles/legacy/104173.jpg"
   },
   {
      "id":106741,
      "name":"Q",
      "address":"521 W. 7th Street",
      "city":"Los Angeles",
      "state":"CA",
      "area":"Los Angeles / Orange County",
      "postal_code":"90014",
      "country":"US",
      "phone":"2132256285x",
      "lat":34.047135,
      "long":-118.256097,
      "price":4,
      "cuisines":[
                  "Steak",
                  "Burgers"
                  ],
      "reserve_url":"http://www.opentable.com/single.aspx?rid=106741",
      "mobile_reserve_url":"http://mobile.opentable.com/opentable/?restId=106741",
      "image_url":"https://resizer.otstatic.com/v2/profiles/legacy/106741.jpg"
   },
   {
      "id":19183,
      "name":"Maria's Italian Kitchen - Downtown",
      "address":"615 S. Flower Street",
      "city":"Los Angeles",
      "state":"CA",
      "area":"Los Angeles / Orange County",
      "postal_code":"90017",
      "country":"US",
      "phone":"2136234777",
      "lat":34.049342,
      "long":-118.258174,
      "price":2,
      "cuisines":[
                  "Italian",
                  "Pizza"
                  ],
      "reserve_url":"http://www.opentable.com/single.aspx?rid=19183",
      "mobile_reserve_url":"http://mobile.opentable.com/opentable/?restId=19183",
      "image_url":"https://resizer.otstatic.com/v2/profiles/legacy/19183.jpg"
   },
   {
      "id":34459,
      "name":"Chalet Edelweiss",
      "address":"8740 Sepulveda Blvd.",
      "city":"Los Angeles",
      "state":"CA",
      "area":"Los Angeles / Orange County",
      "postal_code":"90045",
      "country":"US",
      "phone":"3106458740",
      "lat":33.957675,
      "long":-118.39573,
      "price":2,
      "cuisines":[
                  "French",
                  "Seafood"
                  ],
      "reserve_url":"http://www.opentable.com/single.aspx?rid=34459",
      "mobile_reserve_url":"http://mobile.opentable.com/opentable/?restId=34459",
      "image_url":"https://resizer.otstatic.com/v2/profiles/legacy/34459.jpg"
   },
   {
      "id":151228,
      "name":"Red Hill Restaurant",
      "address":"1325 Echo Park Avenue",
      "city":"Los Angeles",
      "state":"CA",
      "area":"Los Angeles / Orange County",
      "postal_code":"90026",
      "country":"US",
      "phone":"2134820886",
      "lat":34.077721,
      "long":-118.256968,
      "price":2,
      "cuisines":[
                  "Burgers",
                  "American"
                  ],
      "reserve_url":"http://www.opentable.com/single.aspx?rid=151228",
      "mobile_reserve_url":"http://mobile.opentable.com/opentable/?restId=151228",
      "image_url":"https://resizer.otstatic.com/v2/profiles/legacy/151228.jpg"
   },
   {
      "id":6047,
      "name":"UPSTAIRS 2",
      "address":"2311 Cotner Ave",
      "city":"Los Angeles",
      "state":"CA",
      "area":"Los Angeles / Orange County",
      "postal_code":"90064",
      "country":"US",
      "phone":"3102310316",
      "lat":34.038,
      "long":-118.438,
      "price":2,
      "cuisines":[
                  "Wine",
                  "Bar"
                  ],
      "reserve_url":"http://www.opentable.com/single.aspx?rid=6047",
      "mobile_reserve_url":"http://mobile.opentable.com/opentable/?restId=6047",
      "image_url":"https://resizer.otstatic.com/v2/profiles/legacy/6047.jpg"
   },
   {
      "id":24472,
      "name":"Drago Centro",
      "address":"525 S. Flower St., Suite 120",
      "city":"Los Angeles",
      "state":"CA",
      "area":"Los Angeles / Orange County",
      "postal_code":"90071",
      "country":"US",
      "phone":"2132288998x",
      "lat":34.051541,
      "long":-118.256939,
      "price":2,
      "cuisines":[
                  "Latin",
                  "Cuban"
                  ],
      "reserve_url":"http://www.opentable.com/single.aspx?rid=24472",
      "mobile_reserve_url":"http://mobile.opentable.com/opentable/?restId=24472",
      "image_url":"https://resizer.otstatic.com/v2/profiles/legacy/24472.jpg"
   },
   {
      "id":13507,
      "name":"BLD",
      "address":"7450 Beverly Blvd",
      "city":"Los Angeles",
      "state":"CA",
      "area":"Los Angeles / Orange County",
      "postal_code":"90036",
      "country":"US",
      "phone":"3239309744",
      "lat":34.076155,
      "long":-118.352245,
      "price":2,
      "cuisines":[
                  "Seafood",
                  "Tapas"
                  ],
      "reserve_url":"http://www.opentable.com/single.aspx?rid=13507",
      "mobile_reserve_url":"http://mobile.opentable.com/opentable/?restId=13507",
      "image_url":"https://resizer.otstatic.com/v2/profiles/legacy/13507.jpg"
   },
   {
      "id":14356,
      "name":"Craft Los Angeles",
      "address":"10100 Constellation Boulevard",
      "city":"Los Angeles",
      "state":"CA",
      "area":"Los Angeles / Orange County",
      "postal_code":"90067",
      "country":"US",
      "phone":"3102794180x",
      "lat":34.059818,
      "long":-118.414355,
      "price":3, 
      "cuisines":[
                  "Brewery",
                  "Prime Rib"
                  ],
      "reserve_url":"http://www.opentable.com/single.aspx?rid=14356",
      "mobile_reserve_url":"http://mobile.opentable.com/opentable/?restId=14356",
      "image_url":"https://resizer.otstatic.com/v2/profiles/legacy/14356.jpg"
   },
   {
      "id":4579,
      "name":"Engine Co. No. 28",
      "address":"644 S. Figueroa St.",
      "city":"Los Angeles",
      "state":"CA",
      "area":"Los Angeles / Orange County",
      "postal_code":"90017",
      "country":"US",
      "phone":"2136246996",
      "lat":34.05,
      "long":-118.259,
      "price":2,
      "cuisines":[
                  "Brewery",
                  "Wine"
                  ],
      "reserve_url":"http://www.opentable.com/single.aspx?rid=4579",
      "mobile_reserve_url":"http://mobile.opentable.com/opentable/?restId=4579",
      "image_url":"https://resizer.otstatic.com/v2/profiles/legacy/4579.jpg"
   },
   {
      "id":5805,
      "name":"West at Hotel Angeleno",
      "address":"170 N Church Lane",
      "city":"Los Angeles",
      "state":"CA",
      "area":"Los Angeles / Orange County",
      "postal_code":"90049",
      "country":"US",
      "phone":"3104817878x",
      "lat":34.074735,
      "long":-118.468974,
      "price":2,
      "cuisines":[
                  "Italian",
                  "Seafood"
                  ],
      "reserve_url":"http://www.opentable.com/single.aspx?rid=5805",
      "mobile_reserve_url":"http://mobile.opentable.com/opentable/?restId=5805",
      "image_url":"https://resizer.otstatic.com/v2/profiles/legacy/5805.jpg"
   },
   {
      "id":149794,
      "name":"Pistola",
      "address":"8022 W Third St",
      "city":"Los Angeles",
      "state":"CA",
      "area":"Los Angeles / Orange County",
      "postal_code":"90048",
      "country":"US",
      "phone":"3239519800x",
      "lat":34.071851,
      "long":-118.36459,
      "price":3,
      "cuisines":[
                  "Mediterranean",
                  "Comfort"
                  ],
      "reserve_url":"http://www.opentable.com/single.aspx?rid=149794",
      "mobile_reserve_url":"http://mobile.opentable.com/opentable/?restId=149794",
      "image_url":"https://resizer.otstatic.com/v2/profiles/legacy/149794.jpg"
   },
   {
      "id":95263,
      "name":"Ba Restaurant",
      "address":"5100 York Blvd.",
      "city":"Los Angeles",
      "state":"CA",
      "area":"Los Angeles / Orange County",
      "postal_code":"90042",
      "country":"US",
      "phone":"3237396243x",
      "lat":34.120938,
      "long":-118.204672,
      "price":3,
      "cuisines":[
                  "French",
                  "International"
                  ],
      "reserve_url":"http://www.opentable.com/single.aspx?rid=95263",
      "mobile_reserve_url":"http://mobile.opentable.com/opentable/?restId=95263",
      "image_url":"https://resizer.otstatic.com/v2/profiles/legacy/95263.jpg"
   },
   {
      "id":97159,
      "name":"Picante Latin Fusion Restaurant",
      "address":"1001 Maple Ave",
      "city":"Los Angeles",
      "state":"CA",
      "area":"Los Angeles / Orange County",
      "postal_code":"90015",
      "country":"US",
      "phone":"2137650201",
      "lat":34.038316,
      "long":-118.25402,
      "price":2,
      "cuisines":[
                  "Latin",
                  "Bistro"
                  ],
      "reserve_url":"http://www.opentable.com/single.aspx?rid=97159",
      "mobile_reserve_url":"http://mobile.opentable.com/opentable/?restId=97159",
      "image_url":"https://resizer.otstatic.com/v2/profiles/legacy/97159.jpg"
   },
   {
      "id":109447,
      "name":"Mo-Chica",
      "address":"514 W 7th St",
      "city":"Los Angeles",
      "state":"CA",
      "area":"Los Angeles / Orange County",
      "postal_code":"90014",
      "country":"US",
      "phone":"2136223744",
      "lat":34.046755,
      "long":-118.256062,
      "price":2,
      "cuisines":[
                  "Steak",
                  "Seafood"
                  ],
      "reserve_url":"http://www.opentable.com/single.aspx?rid=109447",
      "mobile_reserve_url":"http://mobile.opentable.com/opentable/?restId=109447",
      "image_url":"https://resizer.otstatic.com/v2/profiles/legacy/109447.jpg"
   },
   {
      "id":29473,
      "name":"Westside Tavern",
      "address":"10850 W. Pico Blvd",
      "city":"Los Angeles",
      "state":"CA",
      "area":"Los Angeles / Orange County",
      "postal_code":"90064",
      "country":"US",
      "phone":"3104701539x",
      "lat":34.040086,
      "long":-118.428538,
      "price":2,
      "cuisines":[
                  "Bar",
                  "Wine"
                  ],
      "reserve_url":"http://www.opentable.com/single.aspx?rid=29473",
      "mobile_reserve_url":"http://mobile.opentable.com/opentable/?restId=29473",
      "image_url":"https://resizer.otstatic.com/v2/profiles/legacy/29473.jpg"
   },
   {
      "id":104209,
      "name":"Hyperion Public",
      "address":"2538 Hyperion Avenue",
      "city":"Los Angeles",
      "state":"CA",
      "area":"Los Angeles / Orange County",
      "postal_code":"90027",
      "country":"US",
      "phone":"3237616440x",
      "lat":34.105339,
      "long":-118.272702,
      "price":2,
      "cuisines":[
                  "Organic",
                  "Seafood"
                  ],
      "reserve_url":"http://www.opentable.com/single.aspx?rid=104209",
      "mobile_reserve_url":"http://mobile.opentable.com/opentable/?restId=104209",
      "image_url":"https://resizer.otstatic.com/v2/profiles/legacy/104209.jpg"
   },
   {
      "id":145984,
      "name":"Hutchinson Cocktails & Grill",
      "address":"826 N La Cienega Blvd",
      "city":"Los Angeles",
      "state":"CA",
      "area":"Los Angeles / Orange County",
      "postal_code":"90069",
      "country":"US",
      "phone":"3103600884x",
      "lat":34.086158,
      "long":-118.37609,
      "price":3,
      "cuisines":[
                  "Burgers",
                  "American"
                  ],
      "reserve_url":"http://www.opentable.com/single.aspx?rid=145984",
      "mobile_reserve_url":"http://mobile.opentable.com/opentable/?restId=145984",
      "image_url":"https://resizer.otstatic.com/v2/profiles/legacy/145984.jpg"
   },
   {
      "id":13378,
      "name":"Palm Restaurant - Los Angeles - Downtown",
      "address":"1100 South Flower Street",
      "city":"Los Angeles",
      "state":"CA",
      "area":"Los Angeles / Orange County",
      "postal_code":"90015",
      "country":"US",
      "phone":"2137634600",
      "lat":34.042947,
      "long":-118.264159,
      "price":3,
      "cuisines":[
                  "Organic",
                  "Tapas"
                  ],
      "reserve_url":"http://www.opentable.com/single.aspx?rid=13378",
      "mobile_reserve_url":"http://mobile.opentable.com/opentable/?restId=13378",
      "image_url":"https://resizer.otstatic.com/v2/profiles/legacy/13378.jpg"
   },
   {
      "id":22567,
      "name":"BREADBAR Century City",
      "address":"10250 Santa Monica Blvd",
      "city":"Los Angeles",
      "state":"CA",
      "area":"Los Angeles / Orange County",
      "postal_code":"90067",
      "country":"US",
      "phone":"3102773770x",
      "lat":34.05949,
      "long":-118.420801,
      "price":2,
      "cuisines":[
                  "Mexican",
                  "Peruvian"
                  ],
      "reserve_url":"http://www.opentable.com/single.aspx?rid=22567",
      "mobile_reserve_url":"http://mobile.opentable.com/opentable/?restId=22567",
      "image_url":"https://resizer.otstatic.com/v2/profiles/legacy/22567.jpg"
   },
   {
      "id":147823,
      "name":"Pizzeria Il Fico",
      "address":"310 S. Robertson Blvd.",
      "city":"Los Angeles",
      "state":"CA",
      "area":"Los Angeles / Orange County",
      "postal_code":"90048",
      "country":"US",
      "phone":"3102713426",
      "lat":34.073164,
      "long":-118.383473,
      "price":2,
      "cuisines":[
                  "Pizza",
                  "Italian"
                  ],
      "reserve_url":"http://www.opentable.com/single.aspx?rid=147823",
      "mobile_reserve_url":"http://mobile.opentable.com/opentable/?restId=147823",
      "image_url":"https://resizer.otstatic.com/v2/profiles/legacy/147823.jpg"
   },
   {
      "id":64306,
      "name":"chi SPACCA",
      "address":"6610 Melrose Ave.",
      "city":"Los Angeles",
      "state":"CA",
      "area":"Los Angeles / Orange County",
      "postal_code":"90038",
      "country":"US",
      "phone":"3232971133x",
      "lat":34.083433,
      "long":-118.338544,
      "price":4,
      "cuisines":[
                  "French",
                  "International"
                  ],
      "reserve_url":"http://www.opentable.com/single.aspx?rid=64306",
      "mobile_reserve_url":"http://mobile.opentable.com/opentable/?restId=64306",
      "image_url":"https://resizer.otstatic.com/v2/profiles/legacy/64306.jpg"
   },
   {
      "id":15055,
      "name":"Maggiano's - Farmers Market",
      "address":"189 The Grove Drive",
      "city":"Los Angeles",
      "state":"CA",
      "area":"Los Angeles / Orange County",
      "postal_code":"90036",
      "country":"US",
      "phone":"3239659665",
      "lat":34.071108,
      "long":-118.356302,
      "price":2,
      "cuisines":[
                  "American",
                  "Organic"
                  ],
      "reserve_url":"http://www.opentable.com/single.aspx?rid=15055",
      "mobile_reserve_url":"http://mobile.opentable.com/opentable/?restId=15055",
      "image_url":"https://resizer.otstatic.com/v2/profiles/legacy/15055.jpg"
   },
   {
      "id":116647,
      "name":"Maximiliano",
      "address":"5930 York Blvd",
      "city":"Los Angeles",
      "state":"CA",
      "area":"Los Angeles / Orange County",
      "postal_code":"90042",
      "country":"US",
      "phone":"3237396125x",
      "lat":34.118007,
      "long":-118.189766,
      "price":2,
      "cuisines":[
                  "Steak",
                  "Italian"
                  ],
      "reserve_url":"http://www.opentable.com/single.aspx?rid=116647",
      "mobile_reserve_url":"http://mobile.opentable.com/opentable/?restId=116647",
      "image_url":"https://resizer.otstatic.com/v2/profiles/legacy/116647.jpg"
   },
   {
      "id":19081,
      "name":"Church & State",
      "address":"1850 Industrial Street",
      "city":"Los Angeles",
      "state":"CA",
      "area":"Los Angeles / Orange County",
      "postal_code":"90021",
      "country":"US",
      "phone":"2134051434x",
      "lat":34.035796,
      "long":-118.233655,
      "price":2,
      "cuisines":[
                  "Southern",
                  "American"
                  ],
      "reserve_url":"http://www.opentable.com/single.aspx?rid=19081",
      "mobile_reserve_url":"http://mobile.opentable.com/opentable/?restId=19081",
      "image_url":"https://resizer.otstatic.com/v2/profiles/legacy/19081.jpg"
   }
]