[
   {
      "id":146230,
      "name":"MIlkfish",
      "address":"125 N. Carrollton Ave.",
      "city":"New Orleans",
      "state":"LA",
      "area":"New Orleans / Louisiana",
      "postal_code":"70119",
      "country":"US",
      "phone":"5042674199",
      "lat":29.975317,
      "long":-90.10031,
      "price":2, 
      "cuisines":[
                  "Seafood",
                  "Californian"
                  ],
      "reserve_url":"http://www.opentable.com/single.aspx?rid=146230",
      "mobile_reserve_url":"http://mobile.opentable.com/opentable/?restId=146230",
      "image_url":"https://resizer.otstatic.com/v2/profiles/legacy/146230.jpg"
   },
   {
      "id":141277,
      "name":"Superior Seafood",
      "address":"4338 St. Charles Avenue",
      "city":"New Orleans",
      "state":"LA",
      "area":"New Orleans / Louisiana",
      "postal_code":"70115",
      "country":"US",
      "phone":"5042933474x",
      "lat":29.92617,
      "long":-90.101605,
      "price":2,
      "cuisines":[
                  "Steak",
                  "Bistro"
                  ],
      "reserve_url":"http://www.opentable.com/single.aspx?rid=141277",
      "mobile_reserve_url":"http://mobile.opentable.com/opentable/?restId=141277",
      "image_url":"https://resizer.otstatic.com/v2/profiles/legacy/141277.jpg"
   },
   {
      "id":3882,
      "name":"Lilette",
      "address":"3637 Magazine St.",
      "city":"New Orleans",
      "state":"LA",
      "area":"New Orleans / Louisiana",
      "postal_code":"70115",
      "country":"US",
      "phone":"5048951636x",
      "lat":29.9218,
      "long":-90.0925,
      "price":3,
      "cuisines":[
                  "Italian",
                  "Wine"
                  ],
      "reserve_url":"http://www.opentable.com/single.aspx?rid=3882",
      "mobile_reserve_url":"http://mobile.opentable.com/opentable/?restId=3882",
      "image_url":"https://resizer.otstatic.com/v2/profiles/legacy/3882.jpg"
   },
   {
      "id":95878,
      "name":"ANNUNCIATION",
      "address":"1016 Annunciation Street",
      "city":"New Orleans",
      "state":"LA",
      "area":"New Orleans / Louisiana",
      "postal_code":"70130",
      "country":"US",
      "phone":"5045680245x",
      "lat":29.941544,
      "long":-90.067618,
      "price":2,
      "cuisines":[
                  "Brewery",
                  "Seafood"
                  ],
      "reserve_url":"http://www.opentable.com/single.aspx?rid=95878",
      "mobile_reserve_url":"http://mobile.opentable.com/opentable/?restId=95878",
      "image_url":"https://resizer.otstatic.com/v2/profiles/legacy/95878.jpg"
   },
   {
      "id":101860,
      "name":"Dominique's on Magazine",
      "address":"4213 Magazine Street",
      "city":"New Orleans",
      "state":"LA",
      "area":"New Orleans / Louisiana",
      "postal_code":"70115",
      "country":"US",
      "phone":"5048919282x",
      "lat":29.9212,
      "long":-90.099559,
      "price":2,
      "cuisines":[
                  "Caribbean",
                  "Cuban"
                  ],
      "reserve_url":"http://www.opentable.com/single.aspx?rid=101860",
      "mobile_reserve_url":"http://mobile.opentable.com/opentable/?restId=101860",
      "image_url":"https://resizer.otstatic.com/v2/profiles/legacy/101860.jpg"
   },
   {
      "id":78652,
      "name":"Crossroads at House of Blues - New Orleans",
      "address":"225 Decatur Street",
      "city":"New Orleans",
      "state":"LA",
      "area":"New Orleans / Louisiana",
      "postal_code":"70130",
      "country":"US",
      "phone":"5043104961",
      "lat":29.953149,
      "long":-90.066181,
      "price":2,
      "cuisines":[
                  "Wine",
                  "Seafood"
                  ],
      "reserve_url":"http://www.opentable.com/single.aspx?rid=78652",
      "mobile_reserve_url":"http://mobile.opentable.com/opentable/?restId=78652",
      "image_url":"https://resizer.otstatic.com/v2/profiles/legacy/78652.jpg"
   },
   {
      "id":10105,
      "name":"7 on Fulton",
      "address":"701 Convention Center Blvd",
      "city":"New Orleans",
      "state":"LA",
      "area":"New Orleans / Louisiana",
      "postal_code":"70130",
      "country":"US",
      "phone":"5045257555",
      "lat":29.945903,
      "long":-90.06475,
      "price":2,
      "cuisines":[
                  "Organic",
                  "French"
                  ],
      "reserve_url":"http://www.opentable.com/single.aspx?rid=10105",
      "mobile_reserve_url":"http://mobile.opentable.com/opentable/?restId=10105",
      "image_url":"https://resizer.otstatic.com/v2/profiles/legacy/10105.jpg"
   },
   {
      "id":90997,
      "name":"Root",
      "address":"200 Julia St",
      "city":"New Orleans",
      "state":"LA",
      "area":"New Orleans / Louisiana",
      "postal_code":"70130",
      "country":"US",
      "phone":"5042529480",
      "lat":29.944401,
      "long":-90.065371,
      "price":2,
      "cuisines":[
                  "Brewery",
                  "Californian"
                  ],
      "reserve_url":"http://www.opentable.com/single.aspx?rid=90997",
      "mobile_reserve_url":"http://mobile.opentable.com/opentable/?restId=90997",
      "image_url":"https://resizer.otstatic.com/v2/profiles/legacy/90997.jpg"
   },
   {
      "id":114769,
      "name":"Channing Tatum's Saints & Sinners",
      "address":"627 Bourbon St",
      "city":"New Orleans",
      "state":"LA",
      "area":"New Orleans / Louisiana",
      "postal_code":"70130",
      "country":"US",
      "phone":"5045289307x",
      "lat":29.95845,
      "long":-90.066127,
      "price":2,
      "cuisines":[
                  "Burgers",
                  "Steak"
                  ],
      "reserve_url":"http://www.opentable.com/single.aspx?rid=114769",
      "mobile_reserve_url":"http://mobile.opentable.com/opentable/?restId=114769",
      "image_url":"https://resizer.otstatic.com/v2/profiles/legacy/114769.jpg"
   },
   {
      "id":141271,
      "name":"V Sushi and Martini",
      "address":"821 Iberville",
      "city":"New Orleans",
      "state":"LA",
      "area":"New Orleans / Louisiana",
      "postal_code":"70112",
      "country":"US",
      "phone":"5046092291x",
      "lat":29.95503,
      "long":-90.069591,
      "price":2,
      "cuisines":[
                  "Japanese",
                  "Sushi"
                  ],
      "reserve_url":"http://www.opentable.com/single.aspx?rid=141271",
      "mobile_reserve_url":"http://mobile.opentable.com/opentable/?restId=141271",
      "image_url":"https://resizer.otstatic.com/v2/profiles/legacy/141271.jpg"
   },
   {
      "id":149164,
      "name":"Queen & Crescent Hotel",
      "address":"344 Camp St",
      "city":"New Orleans",
      "state":"LA",
      "area":"New Orleans / Louisiana",
      "postal_code":"70130",
      "country":"US",
      "phone":"5045879700",
      "lat":29.950028,
      "long":-90.068858,
      "price":2,
      "cuisines":[
                  "Steak",
                  "Prime Rib"
                  ],
      "reserve_url":"http://www.opentable.com/single.aspx?rid=149164",
      "mobile_reserve_url":"http://mobile.opentable.com/opentable/?restId=149164",
      "image_url":"https://resizer.otstatic.com/v2/profiles/legacy/149164.jpg"
   },
   {
      "id":118693,
      "name":"Square Root",
      "address":"1800 Magazine Street",
      "city":"New Orleans",
      "state":"LA",
      "area":"New Orleans / Louisiana",
      "postal_code":"70130",
      "country":"US",
      "phone":"5043097800x",
      "lat":29.93178,
      "long":-90.073373,
      "price":4,
      "cuisines":[
                  "Brewery",
                  "Seafood"
                  ],
      "reserve_url":"http://www.opentable.com/single.aspx?rid=118693",
      "mobile_reserve_url":"http://mobile.opentable.com/opentable/?restId=118693",
      "image_url":"https://resizer.otstatic.com/v2/profiles/legacy/118693.jpg"
   },
   {
      "id":3880,
      "name":"Richard Fiske's Martini Bar & Restaurant",
      "address":"301 Dauphine Street",
      "city":"New Orleans",
      "state":"LA",
      "area":"New Orleans / Louisiana",
      "postal_code":"70112",
      "country":"US",
      "phone":"5045860972x",
      "lat":29.956233,
      "long":-90.069332,
      "price":2,
      "cuisines":[
                  "Bar",
                  "Tapas"
                  ],
      "reserve_url":"http://www.opentable.com/single.aspx?rid=3880",
      "mobile_reserve_url":"http://mobile.opentable.com/opentable/?restId=3880",
      "image_url":"https://resizer.otstatic.com/v2/profiles/legacy/3880.jpg"
   },
   {
      "id":56203,
      "name":"Capdeville",
      "address":"520 Capdeville St.",
      "city":"New Orleans",
      "state":"LA",
      "area":"New Orleans / Louisiana",
      "postal_code":"70130",
      "country":"US",
      "phone":"5043715161x",
      "lat":29.947289,
      "long":-90.06891,
      "price":2,
      "cuisines":[
                  "Mexican",
                  "Spanish"
                  ],
      "reserve_url":"http://www.opentable.com/single.aspx?rid=56203",
      "mobile_reserve_url":"http://mobile.opentable.com/opentable/?restId=56203",
      "image_url":"https://resizer.otstatic.com/v2/profiles/legacy/56203.jpg"
   },
   {
      "id":144163,
      "name":"Marcello's",
      "address":"715 St. Charles Ave",
      "city":"New Orleans",
      "state":"LA",
      "area":"New Orleans / Louisiana",
      "postal_code":"70130",
      "country":"US",
      "phone":"5045816333x",
      "lat":29.947073,
      "long":-90.071596,
      "price":2,
      "cuisines":[
                  "Seafood",
                  "Wine"
                  ],
      "reserve_url":"http://www.opentable.com/single.aspx?rid=144163",
      "mobile_reserve_url":"http://mobile.opentable.com/opentable/?restId=144163",
      "image_url":"https://resizer.otstatic.com/v2/profiles/legacy/144163.jpg"
   },
   {
      "id":152662,
      "name":"Galatoire's 33 Bar and Steak",
      "address":"215 Bourbon St",
      "city":"New Orleans",
      "state":"LA",
      "area":"New Orleans / Louisiana",
      "postal_code":"70130",
      "country":"US",
      "phone":"5043353932",
      "lat":29.955019,
      "long":-90.068887,
      "price":4,
      "cuisines":[
                  "Italian",
                  "Steak"
                  ],
      "reserve_url":"http://www.opentable.com/single.aspx?rid=152662",
      "mobile_reserve_url":"http://mobile.opentable.com/opentable/?restId=152662",
      "image_url":"https://resizer.otstatic.com/v2/profiles/legacy/152662.jpg"
   },
   {
      "id":2099,
      "name":"The Grill Room at the Windsor Court Hotel",
      "address":"300 Gravier Street",
      "city":"New Orleans",
      "state":"LA",
      "area":"New Orleans / Louisiana",
      "postal_code":"70130",
      "country":"US",
      "phone":"5045221992x",
      "lat":29.949766,
      "long":-90.066219,
      "price":4,
      "cuisines":[
                  "American",
                  "Burgers"
                  ],
      "reserve_url":"http://www.opentable.com/single.aspx?rid=2099",
      "mobile_reserve_url":"http://mobile.opentable.com/opentable/?restId=2099",
      "image_url":"https://resizer.otstatic.com/v2/profiles/legacy/2099.jpg"
   },
   {
      "id":145726,
      "name":"Tommy's Cuisine",
      "address":"746 Tchoupitoulas St",
      "city":"New Orleans",
      "state":"LA",
      "area":"New Orleans / Louisiana",
      "postal_code":"70130",
      "country":"US",
      "phone":"5045811103",
      "lat":29.945309,
      "long":-90.067331,
      "price":2,
      "cuisines":[
                  "Mexican",
                  "International"
                  ],
      "reserve_url":"http://www.opentable.com/single.aspx?rid=145726",
      "mobile_reserve_url":"http://mobile.opentable.com/opentable/?restId=145726",
      "image_url":"https://resizer.otstatic.com/v2/profiles/legacy/145726.jpg"
   },
   {
      "id":89587,
      "name":"Restaurant R'evolution",
      "address":"777 Bienville St",
      "city":"New Orleans",
      "state":"LA",
      "area":"New Orleans / Louisiana",
      "postal_code":"70130",
      "country":"US",
      "phone":"5045532277x",
      "lat":29.955388,
      "long":-90.068277,
      "price":4,
      "cuisines":[
                  "Mexican",
                  "International"
                  ],
      "reserve_url":"http://www.opentable.com/single.aspx?rid=89587",
      "mobile_reserve_url":"http://mobile.opentable.com/opentable/?restId=89587",
      "image_url":"https://resizer.otstatic.com/v2/profiles/legacy/89587.jpg"
   },
   {
      "id":145810,
      "name":"Langlois - Interactive Dining",
      "address":"1710 Pauger Street",
      "city":"New Orleans",
      "state":"LA",
      "area":"New Orleans / Louisiana",
      "postal_code":"70116",
      "country":"US",
      "phone":"5049341010x",
      "lat":29.967527,
      "long":-90.060363,
      "price":4,
      "cuisines":[
                  "Bistro",
                  "Tapas"
                  ],
      "reserve_url":"http://www.opentable.com/single.aspx?rid=145810",
      "mobile_reserve_url":"http://mobile.opentable.com/opentable/?restId=145810",
      "image_url":"https://resizer.otstatic.com/v2/profiles/legacy/145810.jpg"
   },
   {
      "id":1252,
      "name":"Emeril's Delmonico",
      "address":"1300 St. Charles Avenue",
      "city":"New Orleans",
      "state":"LA",
      "area":"New Orleans / Louisiana",
      "postal_code":"70130",
      "country":"US",
      "phone":"5045254937x",
      "lat":29.940456,
      "long":-90.074517,
      "price":3,
      "cuisines":[
                  "Wine",
                  "Southern"
                  ],
      "reserve_url":"http://www.opentable.com/single.aspx?rid=1252",
      "mobile_reserve_url":"http://mobile.opentable.com/opentable/?restId=1252",
      "image_url":"https://resizer.otstatic.com/v2/profiles/legacy/1252.jpg"
   },
   {
      "id":3934,
      "name":"GW Fins",
      "address":"808 Bienville St.",
      "city":"New Orleans",
      "state":"LA",
      "area":"New Orleans / Louisiana",
      "postal_code":"70112",
      "country":"US",
      "phone":"5045813467",
      "lat":29.9555,
      "long":-90.0685,
      "price":4, 
      "cuisines":[
                  "Organic",
                  "Continental"
                  ],
      "reserve_url":"http://www.opentable.com/single.aspx?rid=3934",
      "mobile_reserve_url":"http://mobile.opentable.com/opentable/?restId=3934",
      "image_url":"https://resizer.otstatic.com/v2/profiles/legacy/3934.jpg"
   },
   {
      "id":3107,
      "name":"Morton's The Steakhouse - New Orleans",
      "address":"365 Canal Street",
      "city":"New Orleans",
      "state":"LA",
      "area":"New Orleans / Louisiana",
      "postal_code":"70130",
      "country":"US",
      "phone":"5045660221",
      "lat":29.9508,
      "long":-90.0653,
      "price":4,
      "cuisines":[
                  "Steak",
                  "Prime Rib"
                  ],
      "reserve_url":"http://www.opentable.com/single.aspx?rid=3107",
      "mobile_reserve_url":"http://mobile.opentable.com/opentable/?restId=3107",
      "image_url":"https://resizer.otstatic.com/v2/profiles/legacy/3107.jpg"
   },
   {
      "id":1322,
      "name":"Canal Street Grill",
      "address":"614 Canal Street",
      "city":"New Orleans",
      "state":"LA",
      "area":"New Orleans / Louisiana",
      "postal_code":"70130",
      "country":"US",
      "phone":"5045867211x",
      "lat":29.952711,
      "long":-90.068718,
      "price":4,
      "cuisines":[
                  "Wine",
                  "Peruvian"
                  ],
      "reserve_url":"http://www.opentable.com/single.aspx?rid=1322",
      "mobile_reserve_url":"http://mobile.opentable.com/opentable/?restId=1322",
      "image_url":"https://resizer.otstatic.com/v2/profiles/legacy/1322.jpg"
   },
   {
      "id":1634,
      "name":"Emeril's Restaurant",
      "address":"800 Tchoupitoulas",
      "city":"New Orleans",
      "state":"LA",
      "area":"New Orleans / Louisiana",
      "postal_code":"70130",
      "country":"US",
      "phone":"5045289393",
      "lat":29.944856,
      "long":-90.067348,
      "price":2,
      "cuisines":[
                  "Comfort",
                  "Southern"
                  ],
      "reserve_url":"http://www.opentable.com/single.aspx?rid=1634",
      "mobile_reserve_url":"http://mobile.opentable.com/opentable/?restId=1634",
      "image_url":"https://resizer.otstatic.com/v2/profiles/legacy/1634.jpg"
   }
]
