[
   {
      "id":139,
      "name":"Red Star",
      "address":"503 SW Alder St.",
      "city":"Portland",
      "state":"OR",
      "area":"Portland / Oregon",
      "postal_code":"97204",
      "country":"US",
      "phone":"5032220005x",
      "lat":45.520704,
      "long":-122.6781,
      "price":2,
      "cuisines":[
                  "Organic",
                  "Seafood"
                  ],
      "reserve_url":"http://www.opentable.com/single.aspx?rid=139",
      "mobile_reserve_url":"http://mobile.opentable.com/opentable/?restId=139",
      "image_url":"https://resizer.otstatic.com/v2/profiles/legacy/139.jpg"
   },
   {
      "id":116071,
      "name":"Bethany's Table",
      "address":"15325 Northwest Central Drive,Ste J-1",
      "city":"Portland",
      "state":"OR",
      "area":"Portland / Oregon",
      "postal_code":"97229",
      "country":"US",
      "phone":"5036140267x",
      "lat":45.55456,
      "long":-122.834981,
      "price":2,
      "cuisines":[
                  "Californian",
                  "Comfort"
                  ],
      "reserve_url":"http://www.opentable.com/single.aspx?rid=116071",
      "mobile_reserve_url":"http://mobile.opentable.com/opentable/?restId=116071",
      "image_url":"https://resizer.otstatic.com/v2/profiles/legacy/116071.jpg"
   },
   {
      "id":61129,
      "name":"Aviary",
      "address":"1733 NE Alberta St",
      "city":"Portland",
      "state":"OR",
      "area":"Portland / Oregon",
      "postal_code":"97211",
      "country":"US",
      "phone":"5032872400",
      "lat":45.559306,
      "long":-122.647176,
      "price":2,
      "cuisines":[
                  "Wine",
                  "Steak"
                  ],
      "reserve_url":"http://www.opentable.com/single.aspx?rid=61129",
      "mobile_reserve_url":"http://mobile.opentable.com/opentable/?restId=61129",
      "image_url":"https://resizer.otstatic.com/v2/profiles/legacy/61129.jpg"
   },
   {
      "id":60802,
      "name":"Cocotte",
      "address":"2930 NE Killingsworth",
      "city":"Portland",
      "state":"OR",
      "area":"Portland / Oregon",
      "postal_code":"97211",
      "country":"US",
      "phone":"5032272669x",
      "lat":45.562683,
      "long":-122.635511,
      "price":2,
      "cuisines":[
                  "French",
                  "International"
                  ],
      "reserve_url":"http://www.opentable.com/single.aspx?rid=60802",
      "mobile_reserve_url":"http://mobile.opentable.com/opentable/?restId=60802",
      "image_url":"https://resizer.otstatic.com/v2/profiles/legacy/60802.jpg"
   },
   {
      "id":116200,
      "name":"Streetcar Bistro & Taproom",
      "address":"1101 NW Northrup St",
      "city":"Portland",
      "state":"OR",
      "area":"Portland / Oregon",
      "postal_code":"97209",
      "country":"US",
      "phone":"5032272988x",
      "lat":45.531668,
      "long":-122.682862,
      "price":2,
      "cuisines":[
                  "American",
                  "Bistro"
                  ],
      "reserve_url":"http://www.opentable.com/single.aspx?rid=116200",
      "mobile_reserve_url":"http://mobile.opentable.com/opentable/?restId=116200",
      "image_url":"https://resizer.otstatic.com/v2/profiles/legacy/116200.jpg"
   },
   {
      "id":49285,
      "name":"Bastas Trattoria and Bar",
      "address":"410 NW 21st",
      "city":"Portland",
      "state":"OR",
      "area":"Portland / Oregon",
      "postal_code":"97209",
      "country":"US",
      "phone":"5032741572x",
      "lat":45.525817,
      "long":-122.69409,
      "price":2,
      "cuisines":[
                  "Spanish",
                  "Tapas"
                  ],
      "reserve_url":"http://www.opentable.com/single.aspx?rid=49285",
      "mobile_reserve_url":"http://mobile.opentable.com/opentable/?restId=49285",
      "image_url":"https://resizer.otstatic.com/v2/profiles/legacy/49285.jpg"
   },
   {
      "id":66751,
      "name":"Mama Mia Trattoria",
      "address":"439 SW 2nd Ave (Downtown)",
      "city":"Portland",
      "state":"OR",
      "area":"Portland / Oregon",
      "postal_code":"97204",
      "country":"US",
      "phone":"5032956464x",
      "lat":45.519634,
      "long":-122.67369,
      "price":2,
      "cuisines":[
                  "Pizza",
                  "Italian"
                  ],
      "reserve_url":"http://www.opentable.com/single.aspx?rid=66751",
      "mobile_reserve_url":"http://mobile.opentable.com/opentable/?restId=66751",
      "image_url":"https://resizer.otstatic.com/v2/profiles/legacy/66751.jpg"
   },
   {
      "id":5261,
      "name":"Bistro 921",
      "address":"Hilton Portland",
      "city":"Portland",
      "state":"OR",
      "area":"Portland / Oregon",
      "postal_code":"97204",
      "country":"US",
      "phone":"5032202685x",
      "lat":45.517523,
      "long":-122.679927,
      "price":2,
      "cuisines":[
                  "Wine",
                  "Bistro"
                  ],
      "reserve_url":"http://www.opentable.com/single.aspx?rid=5261",
      "mobile_reserve_url":"http://mobile.opentable.com/opentable/?restId=5261",
      "image_url":"https://resizer.otstatic.com/v2/profiles/legacy/5261.jpg"
   },
   {
      "id":58681,
      "name":"Accanto",
      "address":"2838 SE Belmont St",
      "city":"Portland",
      "state":"OR",
      "area":"Portland / Oregon",
      "postal_code":"97214",
      "country":"US",
      "phone":"5032354900x",
      "lat":45.516425,
      "long":-122.636306,
      "price":2,
      "cuisines":[
                  "Peruvian",
                  "South American"
                  ],
      "reserve_url":"http://www.opentable.com/single.aspx?rid=58681",
      "mobile_reserve_url":"http://mobile.opentable.com/opentable/?restId=58681",
      "image_url":"https://resizer.otstatic.com/v2/profiles/legacy/58681.jpg"
   },
   {
      "id":94561,
      "name":"Imperial",
      "address":"410 SW Broadway",
      "city":"Portland",
      "state":"OR",
      "area":"Portland / Oregon",
      "postal_code":"97205",
      "country":"US",
      "phone":"5032287222x",
      "lat":45.521143,
      "long":-122.678637,
      "price":2,
      "cuisines":[
                  "Spanish",
                  "Tapas"
                  ],
      "reserve_url":"http://www.opentable.com/single.aspx?rid=94561",
      "mobile_reserve_url":"http://mobile.opentable.com/opentable/?restId=94561",
      "image_url":"https://resizer.otstatic.com/v2/profiles/legacy/94561.jpg"
   },
   {
      "id":48292,
      "name":"Beast",
      "address":"5425 NE 30th Ave",
      "city":"Portland",
      "state":"OR",
      "area":"Portland / Oregon",
      "postal_code":"97211",
      "country":"US",
      "phone":"5038416968x",
      "lat":45.562419,
      "long":-122.634999,
      "price":4,
      "cuisines":[
                  "Burgers",
                  "Pizza"
                  ],
      "reserve_url":"http://www.opentable.com/single.aspx?rid=48292",
      "mobile_reserve_url":"http://mobile.opentable.com/opentable/?restId=48292",
      "image_url":"https://resizer.otstatic.com/v2/profiles/legacy/48292.jpg"
   },
   {
      "id":23812,
      "name":"Urban Farmer",
      "address":"525 SW Morrison St.",
      "city":"Portland",
      "state":"OR",
      "area":"Portland / Oregon",
      "postal_code":"97204",
      "country":"US",
      "phone":"5032224900x",
      "lat":45.518873,
      "long":-122.677834,
      "price":4,
      "cuisines":[
                  "Organic",
                  "Californian"
                  ],
      "reserve_url":"http://www.opentable.com/single.aspx?rid=23812",
      "mobile_reserve_url":"http://mobile.opentable.com/opentable/?restId=23812",
      "image_url":"https://resizer.otstatic.com/v2/profiles/legacy/23812.jpg"
   },
   {
      "id":95284,
      "name":"Roe",
      "address":"3113 SE Division",
      "city":"Portland",
      "state":"OR",
      "area":"Portland / Oregon",
      "postal_code":"97202",
      "country":"US",
      "phone":"5032321566x",
      "lat":45.5048,
      "long":-122.633394,
      "price":4,
      "cuisines":[
                  "Organic",
                  "Comfort"
                  ],
      "reserve_url":"http://www.opentable.com/single.aspx?rid=95284",
      "mobile_reserve_url":"http://mobile.opentable.com/opentable/?restId=95284",
      "image_url":"https://resizer.otstatic.com/v2/profiles/legacy/95284.jpg"
   },
   {
      "id":104971,
      "name":"Noisette",
      "address":"1937 NW 23rd Place",
      "city":"Portland",
      "state":"OR",
      "area":"Portland / Oregon",
      "postal_code":"97210",
      "country":"US",
      "phone":"503-719-4599x",
      "lat":45.536772,
      "long":-122.70012,
      "price":4,
      "cuisines":[
                  "Bistro",
                  "French"
                  ],
      "reserve_url":"http://www.opentable.com/single.aspx?rid=104971",
      "mobile_reserve_url":"http://mobile.opentable.com/opentable/?restId=104971",
      "image_url":"https://resizer.otstatic.com/v2/profiles/legacy/104971.jpg"
   },
   {
      "id":21916,
      "name":"Urban Fondue",
      "address":"2114 NW Glisan Street",
      "city":"Portland",
      "state":"OR",
      "area":"Portland / Oregon",
      "postal_code":"97210",
      "country":"US",
      "phone":"5032421400",
      "lat":45.526298,
      "long":-122.694724,
      "price":2,
      "cuisines":[
                  "Wine",
                  "Seafood"
                  ],
      "reserve_url":"http://www.opentable.com/single.aspx?rid=21916",
      "mobile_reserve_url":"http://mobile.opentable.com/opentable/?restId=21916",
      "image_url":"https://resizer.otstatic.com/v2/profiles/legacy/21916.jpg"
   },
   {
      "id":32362,
      "name":"Davis Street Tavern",
      "address":"500 NW Davis Street",
      "city":"Portland",
      "state":"OR",
      "area":"Portland / Oregon",
      "postal_code":"97209",
      "country":"US",
      "phone":"5035055050x",
      "lat":45.524511,
      "long":-122.675472,
      "price":2,
      "cuisines":[
                  "Comfort",
                  "Burgers"
                  ],
      "reserve_url":"http://www.opentable.com/single.aspx?rid=32362",
      "mobile_reserve_url":"http://mobile.opentable.com/opentable/?restId=32362",
      "image_url":"https://resizer.otstatic.com/v2/profiles/legacy/32362.jpg"
   },
   {
      "id":6697,
      "name":"McCormick & Schmick's Harborside - Portland",
      "address":"0309 SW Montgomery",
      "city":"Portland",
      "state":"OR",
      "area":"Portland / Oregon",
      "postal_code":"97201",
      "country":"US",
      "phone":"5032201865x",
      "lat":45.509472,
      "long":-122.674083,
      "price":2,
      "cuisines":[
                  "Continental",
                  "Steak"
                  ],
      "reserve_url":"http://www.opentable.com/single.aspx?rid=6697",
      "mobile_reserve_url":"http://mobile.opentable.com/opentable/?restId=6697",
      "image_url":"https://resizer.otstatic.com/v2/profiles/legacy/6697.jpg"
   },
   {
      "id":148192,
      "name":"Pisqu Tapas Bar",
      "address":"510 NE 28th Avenue",
      "city":"Portland",
      "state":"OR",
      "area":"Portland / Oregon",
      "postal_code":"97232",
      "country":"US",
      "phone":"5037099393",
      "lat":45.526784,
      "long":-122.636936,
      "price":4,
      "cuisines":[
                  "Spanish",
                  "Tapas"
                  ],
      "reserve_url":"http://www.opentable.com/single.aspx?rid=148192",
      "mobile_reserve_url":"http://mobile.opentable.com/opentable/?restId=148192",
      "image_url":"https://resizer.otstatic.com/v2/profiles/legacy/148192.jpg"
   },
   {
      "id":148375,
      "name":"Bridgeport Brew Pub",
      "address":"1313 NW Marshall St",
      "city":"Portland",
      "state":"OR",
      "area":"Portland / Oregon",
      "postal_code":"97209",
      "country":"US",
      "phone":"5032413612",
      "lat":45.530945,
      "long":-122.685259,
      "price":2,
      "cuisines":[
                  "American",
                  "Bar"
                  ],
      "reserve_url":"http://www.opentable.com/single.aspx?rid=148375",
      "mobile_reserve_url":"http://mobile.opentable.com/opentable/?restId=148375",
      "image_url":"https://resizer.otstatic.com/v2/profiles/legacy/148375.jpg"
   },
   {
      "id":12556,
      "name":"Aquariva",
      "address":"0470 Southwest Hamilton Court",
      "city":"Portland",
      "state":"OR",
      "area":"Portland / Oregon",
      "postal_code":"97239",
      "country":"US",
      "phone":"5038025850x",
      "lat":45.489772,
      "long":-122.67168,
      "price":2,
      "cuisines":[
                  "Burgers",
                  "Wine"
                  ],
      "reserve_url":"http://www.opentable.com/single.aspx?rid=12556",
      "mobile_reserve_url":"http://mobile.opentable.com/opentable/?restId=12556",
      "image_url":"https://resizer.otstatic.com/v2/profiles/legacy/12556.jpg"
   },
   {
      "id":147694,
      "name":"Cafe Castagna",
      "address":"1758 SE Hawthorne Blvd",
      "city":"Portland",
      "state":"OR",
      "area":"Portland / Oregon",
      "postal_code":"97214",
      "country":"US",
      "phone":"5032319959x",
      "lat":45.512026,
      "long":-122.647329,
      "price":2,
      "cuisines":[
                  "Bistro",
                  "Tapas"
                  ],
      "reserve_url":"http://www.opentable.com/single.aspx?rid=147694",
      "mobile_reserve_url":"http://mobile.opentable.com/opentable/?restId=147694",
      "image_url":"https://resizer.otstatic.com/v2/profiles/legacy/147694.jpg"
   },
   {
      "id":5265,
      "name":"Porto Terra",
      "address":"Hilton Portland",
      "city":"Portland",
      "state":"OR",
      "area":"Portland / Oregon",
      "postal_code":"97204",
      "country":"US",
      "phone":"5039441090x",
      "lat":45.518,
      "long":-122.679,
      "price":2,
      "cuisines":[
                  "Italian",
                  "Continental"
                  ],
      "reserve_url":"http://www.opentable.com/single.aspx?rid=5265",
      "mobile_reserve_url":"http://mobile.opentable.com/opentable/?restId=5265",
      "image_url":"https://resizer.otstatic.com/v2/profiles/legacy/5265.jpg"
   },
   {
      "id":6533,
      "name":"Gracie's",
      "address":"729 SW 15th Avenue",
      "city":"Portland",
      "state":"OR",
      "area":"Portland / Oregon",
      "postal_code":"97205",
      "country":"US",
      "phone":"5032222171",
      "lat":45.521172,
      "long":-122.687273,
      "price":2,
      "cuisines":[
                  "Organic",
                  "Californian"
                  ],
      "reserve_url":"http://www.opentable.com/single.aspx?rid=6533",
      "mobile_reserve_url":"http://mobile.opentable.com/opentable/?restId=6533",
      "image_url":"https://resizer.otstatic.com/v2/profiles/legacy/6533.jpg"
   },
   {
      "id":151180,
      "name":"Fado Portuguese Kitchen & Bar",
      "address":"4612 SE Hawthorne Blvd",
      "city":"Portland",
      "state":"OR",
      "area":"Portland / Oregon",
      "postal_code":"97215",
      "country":"US",
      "phone":"9712717769x",
      "lat":45.512017,
      "long":-122.614768,
      "price":2,
      "cuisines":[
                  "South American",
                  "Spanish"
                  ],
      "reserve_url":"http://www.opentable.com/single.aspx?rid=151180",
      "mobile_reserve_url":"http://mobile.opentable.com/opentable/?restId=151180",
      "image_url":"https://resizer.otstatic.com/v2/profiles/legacy/151180.jpg"
   },
   {
      "id":141262,
      "name":"North Light",
      "address":"3746 N Mississippi Ave",
      "city":"Portland",
      "state":"OR",
      "area":"Portland / Oregon",
      "postal_code":"97227",
      "country":"US",
      "phone":"5034777079x",
      "lat":45.550204,
      "long":-122.675273,
      "price":2,
      "cuisines":[
                  "Brewery",
                  "Burgers"
                  ],
      "reserve_url":"http://www.opentable.com/single.aspx?rid=141262",
      "mobile_reserve_url":"http://mobile.opentable.com/opentable/?restId=141262",
      "image_url":"https://resizer.otstatic.com/v2/profiles/legacy/141262.jpg"
   }
]