[
   {
      "id":4162,
      "name":"Orsay",
      "address":"1057-59 Lexington Avenue",
      "city":"New York",
      "state":"NY",
      "area":"New York / Tri-State Area",
      "postal_code":"10021",
      "country":"US",
      "phone":"2125176400x0",
      "lat":40.772397,
      "long":-73.960762,
      "price":3,
      "cuisines":[
                  "Wine",
                  "Seafood"
                  ],
      "reserve_url":"http://www.opentable.com/single.aspx?rid=4162",
      "mobile_reserve_url":"http://mobile.opentable.com/opentable/?restId=4162",
      "image_url":"https://resizer.otstatic.com/v2/profiles/legacy/4162.jpg"
   },
   {
      "id":24202,
      "name":"Hill Country - Flatiron",
      "address":"30 West 26th Street",
      "city":"New York",
      "state":"NY",
      "area":"New York / Tri-State Area",
      "postal_code":"10010",
      "country":"US",
      "phone":"2122554544x10",
      "lat":40.744163,
      "long":-73.990471,
      "price":2,
      "cuisines":[
                  "Organic",
                  "Southern"
                  ],
      "reserve_url":"http://www.opentable.com/single.aspx?rid=24202",
      "mobile_reserve_url":"http://mobile.opentable.com/opentable/?restId=24202",
      "image_url":"https://resizer.otstatic.com/v2/profiles/legacy/24202.jpg"
   },
   {
      "id":97870,
      "name":"Bacchanal",
      "address":"146 Bowery",
      "city":"New York",
      "state":"NY",
      "area":"New York / Tri-State Area",
      "postal_code":"10013",
      "country":"US",
      "phone":"646-355-1840x",
      "lat":40.719441,
      "long":-73.994966,
      "price":2,
      "cuisines":[
                  "Continental",
                  "Tapas"
                  ],
      "reserve_url":"http://www.opentable.com/single.aspx?rid=97870",
      "mobile_reserve_url":"http://mobile.opentable.com/opentable/?restId=97870",
      "image_url":"https://resizer.otstatic.com/v2/profiles/legacy/97870.jpg"
   },
   {
      "id":139675,
      "name":"SK√ÅL",
      "address":"37 Canal St.",
      "city":"New York",
      "state":"NY",
      "area":"New York / Tri-State Area",
      "postal_code":"10002",
      "country":"US",
      "phone":"2127777518",
      "lat":40.71476,
      "long":-73.990943,
      "price":3,
      "cuisines":[
                  "Burgers",
                  "Brewery"
                  ],
      "reserve_url":"http://www.opentable.com/single.aspx?rid=139675",
      "mobile_reserve_url":"http://mobile.opentable.com/opentable/?restId=139675",
      "image_url":"https://resizer.otstatic.com/v2/profiles/legacy/139675.jpg"
   },
   {
      "id":5656,
      "name":"MINT",
      "address":"150 E. 50th Street",
      "city":"New York",
      "state":"NY",
      "area":"New York / Tri-State Area",
      "postal_code":"10022",
      "country":"US",
      "phone":"2126448888",
      "lat":40.756,
      "long":-73.972,
      "price":3,
      "cuisines":[
                  "Organic",
                  "Californian"
                  ],
      "reserve_url":"http://www.opentable.com/single.aspx?rid=5656",
      "mobile_reserve_url":"http://mobile.opentable.com/opentable/?restId=5656",
      "image_url":"https://resizer.otstatic.com/v2/profiles/legacy/5656.jpg"
   },
   {
      "id":118534,
      "name":"Ariana",
      "address":"138-140 W Houston St",
      "city":"New York",
      "state":"NY",
      "area":"New York / Tri-State Area",
      "postal_code":"10012",
      "country":"US",
      "phone":"6466784334x",
      "lat":40.727871,
      "long":-74.001626,
      "price":3,
      "cuisines":[
                  "Mexican",
                  "Latin"
                  ],
      "reserve_url":"http://www.opentable.com/single.aspx?rid=118534",
      "mobile_reserve_url":"http://mobile.opentable.com/opentable/?restId=118534",
      "image_url":"https://resizer.otstatic.com/v2/profiles/legacy/118534.jpg"
   },
   {
      "id":108091,
      "name":"Hudson Place Restaurant & Bar",
      "address":"538 3rd Ave",
      "city":"New York",
      "state":"NY",
      "area":"New York / Tri-State Area",
      "postal_code":"10016",
      "country":"US",
      "phone":"2126866660x",
      "lat":40.747048,
      "long":-73.97755,
      "price":2,
      "cuisines":[
                  "Steak",
                  "Southern"
                  ],
      "reserve_url":"http://www.opentable.com/single.aspx?rid=108091",
      "mobile_reserve_url":"http://mobile.opentable.com/opentable/?restId=108091",
      "image_url":"https://resizer.otstatic.com/v2/profiles/legacy/108091.jpg"
   },
   {
      "id":152554,
      "name":"Perla",
      "address":"24 Minetta Lane",
      "city":"New York",
      "state":"NY",
      "area":"New York / Tri-State Area",
      "postal_code":"10012",
      "country":"US",
      "phone":"2129331824",
      "lat":40.730469,
      "long":-74.001262,
      "price":3,
      "cuisines":[
                  "Mediterranean",
                  "International"
                  ],
      "reserve_url":"http://www.opentable.com/single.aspx?rid=152554",
      "mobile_reserve_url":"http://mobile.opentable.com/opentable/?restId=152554",
      "image_url":"https://resizer.otstatic.com/v2/profiles/legacy/152554.jpg"
   },
   {
      "id":112417,
      "name":"Lazzara's Pizza Cafe",
      "address":"221 West 38th Street",
      "city":"New York",
      "state":"NY",
      "area":"New York / Tri-State Area",
      "postal_code":"10018",
      "country":"US",
      "phone":"2129447792",
      "lat":40.753932,
      "long":-73.989547,
      "price":2,
      "cuisines":[
                  "Pizza",
                  "Burgers"
                  ],
      "reserve_url":"http://www.opentable.com/single.aspx?rid=112417",
      "mobile_reserve_url":"http://mobile.opentable.com/opentable/?restId=112417",
      "image_url":"https://resizer.otstatic.com/v2/profiles/legacy/112417.jpg"
   },
   {
      "id":108433,
      "name":"CAMAJE Bistro",
      "address":"85 MacDougal St",
      "city":"New York",
      "state":"NY",
      "area":"New York / Tri-State Area",
      "postal_code":"10012",
      "country":"US",
      "phone":"2126738184",
      "lat":40.728884,
      "long":-74.001561,
      "price":2,
      "cuisines":[
                  "Wine",
                  "French"
                  ],
      "reserve_url":"http://www.opentable.com/single.aspx?rid=108433",
      "mobile_reserve_url":"http://mobile.opentable.com/opentable/?restId=108433",
      "image_url":"https://resizer.otstatic.com/v2/profiles/legacy/108433.jpg"
   },
   {
      "id":104296,
      "name":"Barn Joo",
      "address":"893 Broadway",
      "city":"New York",
      "state":"NY",
      "area":"New York / Tri-State Area",
      "postal_code":"10003",
      "country":"US",
      "phone":"6463989663x",
      "lat":40.738912,
      "long":-73.990223,
      "price":3,
      "cuisines":[
                  "Spanish",
                  "Brewery"
                  ],
      "reserve_url":"http://www.opentable.com/single.aspx?rid=104296",
      "mobile_reserve_url":"http://mobile.opentable.com/opentable/?restId=104296",
      "image_url":"https://resizer.otstatic.com/v2/profiles/legacy/104296.jpg"
   },
   {
      "id":63580,
      "name":"Mulberry Project",
      "address":"149 Mulberry St.",
      "city":"New York",
      "state":"NY",
      "area":"New York / Tri-State Area",
      "postal_code":"10013",
      "country":"US",
      "phone":"6464484536",
      "lat":40.719077,
      "long":-73.997689,
      "price":3,
      "cuisines":[
                  "Prime Rib",
                  "American"
                  ],
      "reserve_url":"http://www.opentable.com/single.aspx?rid=63580",
      "mobile_reserve_url":"http://mobile.opentable.com/opentable/?restId=63580",
      "image_url":"https://resizer.otstatic.com/v2/profiles/legacy/63580.jpg"
   },
   {
      "id":111841,
      "name":"The Writing Room",
      "address":"1703 2nd Avenue",
      "city":"New York",
      "state":"NY",
      "area":"New York / Tri-State Area",
      "postal_code":"10128",
      "country":"US",
      "phone":"2123350075x",
      "lat":40.779544,
      "long":-73.950638,
      "price":2,
      "cuisines":[
                  "Brewery",
                  "Steak"
                  ],
      "reserve_url":"http://www.opentable.com/single.aspx?rid=111841",
      "mobile_reserve_url":"http://mobile.opentable.com/opentable/?restId=111841",
      "image_url":"https://resizer.otstatic.com/v2/profiles/legacy/111841.jpg"
   },
   {
      "id":52969,
      "name":"Ai Fiori",
      "address":"400 5th Avenue",
      "city":"New York",
      "state":"NY",
      "area":"New York / Tri-State Area",
      "postal_code":"10018",
      "country":"US",
      "phone":"2126138660x",
      "lat":40.750228,
      "long":-73.983714,
      "price":3,
      "cuisines":[
                  "Italian",
                  "Pizza"
                  ],
      "reserve_url":"http://www.opentable.com/single.aspx?rid=52969",
      "mobile_reserve_url":"http://mobile.opentable.com/opentable/?restId=52969",
      "image_url":"https://resizer.otstatic.com/v2/profiles/legacy/52969.jpg"
   },
   {
      "id":38164,
      "name":"Spina",
      "address":"175 Avenue B",
      "city":"New York",
      "state":"NY",
      "area":"New York / Tri-State Area",
      "postal_code":"10009",
      "country":"US",
      "phone":"2122532250",
      "lat":40.727479,
      "long":-73.979187,
      "price":3,
      "cuisines":[
                  "Spanish",
                  "International"
                  ],
      "reserve_url":"http://www.opentable.com/single.aspx?rid=38164",
      "mobile_reserve_url":"http://mobile.opentable.com/opentable/?restId=38164",
      "image_url":"https://resizer.otstatic.com/v2/profiles/legacy/38164.jpg"
   },
   {
      "id":95353,
      "name":"Maysville",
      "address":"17 W. 26th St",
      "city":"New York",
      "state":"NY",
      "area":"New York / Tri-State Area",
      "postal_code":"10010",
      "country":"US",
      "phone":"6464908240x",
      "lat":40.744061,
      "long":-73.989671,
      "price":3,
      "cuisines":[
                  "Burgers",
                  "Southern"
                  ],
      "reserve_url":"http://www.opentable.com/single.aspx?rid=95353",
      "mobile_reserve_url":"http://mobile.opentable.com/opentable/?restId=95353",
      "image_url":"https://resizer.otstatic.com/v2/profiles/legacy/95353.jpg"
   },
   {
      "id":101131,
      "name":"Grape & Vine",
      "address":"52 W 13th Street",
      "city":"New York",
      "state":"NY",
      "area":"New York / Tri-State Area",
      "postal_code":"10011",
      "country":"US",
      "phone":"2123004525x",
      "lat":40.736317,
      "long":-73.996523,
      "price":3,
      "cuisines":[
                  "Organic",
                  "Tapas"
                  ],
      "reserve_url":"http://www.opentable.com/single.aspx?rid=101131",
      "mobile_reserve_url":"http://mobile.opentable.com/opentable/?restId=101131",
      "image_url":"https://resizer.otstatic.com/v2/profiles/legacy/101131.jpg"
   },
   {
      "id":99322,
      "name":"Barca",
      "address":"244 Mulberry St.",
      "city":"New York",
      "state":"NY",
      "area":"New York / Tri-State Area",
      "postal_code":"10012",
      "country":"US",
      "phone":"2127750112x",
      "lat":40.722925,
      "long":-73.995806,
      "price":3,
      "cuisines":[
                  "Italian",
                  "Seafood"
                  ],
      "reserve_url":"http://www.opentable.com/single.aspx?rid=99322",
      "mobile_reserve_url":"http://mobile.opentable.com/opentable/?restId=99322",
      "image_url":"https://resizer.otstatic.com/v2/profiles/legacy/99322.jpg"
   },
   {
      "id":135925,
      "name":"Tacombi Fonda Nolita",
      "address":"267 Elizabeth St",
      "city":"New York",
      "state":"NY",
      "area":"New York / Tri-State Area",
      "postal_code":"10012",
      "country":"US",
      "phone":"9177270179x",
      "lat":40.724046,
      "long":-73.993875,
      "price":2,
      "cuisines":[
                  "South American",
                  "Peruvian"
                  ],
      "reserve_url":"http://www.opentable.com/single.aspx?rid=135925",
      "mobile_reserve_url":"http://mobile.opentable.com/opentable/?restId=135925",
      "image_url":"https://resizer.otstatic.com/v2/profiles/legacy/135925.jpg"
   },
   {
      "id":63154,
      "name":"Kori Tribeca",
      "address":"253 Church Street",
      "city":"New York",
      "state":"NY",
      "area":"New York / Tri-State Area",
      "postal_code":"10013",
      "country":"US",
      "phone":"212-334-0908x",
      "lat":40.71781,
      "long":-74.005445,
      "price":2,
      "cuisines":[
                  "Caribbean",
                  "Seafood"
                  ],
      "reserve_url":"http://www.opentable.com/single.aspx?rid=63154",
      "mobile_reserve_url":"http://mobile.opentable.com/opentable/?restId=63154",
      "image_url":"https://resizer.otstatic.com/v2/profiles/legacy/63154.jpg"
   },
   {
      "id":69439,
      "name":"Kafana",
      "address":"116 Avenue C",
      "city":"New York",
      "state":"NY",
      "area":"New York / Tri-State Area",
      "postal_code":"10009",
      "country":"US",
      "phone":"2123538000",
      "lat":40.724426,
      "long":-73.978581,
      "price":2,
      "cuisines":[
                  "Japanese",
                  "Panasian"
                  ],
      "reserve_url":"http://www.opentable.com/single.aspx?rid=69439",
      "mobile_reserve_url":"http://mobile.opentable.com/opentable/?restId=69439",
      "image_url":"https://resizer.otstatic.com/v2/profiles/legacy/69439.jpg"
   },
   {
      "id":64942,
      "name":"Nick & Toni's Cafe Manhattan",
      "address":"100 W. 67th St.",
      "city":"New York",
      "state":"NY",
      "area":"New York / Tri-State Area",
      "postal_code":"10023",
      "country":"US",
      "phone":"2124964000x",
      "lat":40.774287,
      "long":-73.981473,
      "price":2,
      "cuisines":[
                  "American",
                  "Burgers"
                  ],
      "reserve_url":"http://www.opentable.com/single.aspx?rid=64942",
      "mobile_reserve_url":"http://mobile.opentable.com/opentable/?restId=64942",
      "image_url":"https://resizer.otstatic.com/v2/profiles/legacy/64942.jpg"
   },
   {
      "id":68272,
      "name":"Dark Horse",
      "address":"17 Murray Street",
      "city":"New York",
      "state":"NY",
      "area":"New York / Tri-State Area",
      "postal_code":"10007",
      "country":"US",
      "phone":"2126083900",
      "lat":40.713718,
      "long":-74.008036,
      "price":2,
      "cuisines":[
                  "Brewery",
                  "Steak"
                  ],
      "reserve_url":"http://www.opentable.com/single.aspx?rid=68272",
      "mobile_reserve_url":"http://mobile.opentable.com/opentable/?restId=68272",
      "image_url":"https://resizer.otstatic.com/v2/profiles/legacy/68272.jpg"
   },
   {
      "id":5274,
      "name":"Dinosaur Bar-B-Que - Harlem",
      "address":"700 west 125th st",
      "city":"New York",
      "state":"NY",
      "area":"New York / Tri-State Area",
      "postal_code":"10027",
      "country":"US",
      "phone":"2126941777x",
      "lat":40.818118,
      "long":-73.960517,
      "price":2,
      "cuisines":[
                  "American",
                  "Burgers"
                  ],
      "reserve_url":"http://www.opentable.com/single.aspx?rid=5274",
      "mobile_reserve_url":"http://mobile.opentable.com/opentable/?restId=5274",
      "image_url":"https://resizer.otstatic.com/v2/profiles/legacy/5274.jpg"
   },
   {
      "id":146086,
      "name":"Chapter One",
      "address":"33 Greenwich Avenue",
      "city":"New York",
      "state":"NY",
      "area":"New York / Tri-State Area",
      "postal_code":"10014",
      "country":"US",
      "phone":"2128429146",
      "lat":40.734985,
      "long":-74.000451,
      "price":2,
      "cuisines":[
                  "Bar",
                  "Seafood"
                  ],
      "reserve_url":"http://www.opentable.com/single.aspx?rid=146086",
      "mobile_reserve_url":"http://mobile.opentable.com/opentable/?restId=146086",
      "image_url":"https://resizer.otstatic.com/v2/profiles/legacy/146086.jpg"
   }
]