[
   {
      "id":27370,
      "name":"Antlers Lodge",
      "address":"9800 Hyatt Resort Drive",
      "city":"San Antonio",
      "state":"TX",
      "area":"San Antonio",
      "postal_code":"78251",
      "country":"US",
      "phone":"2105204001",
      "lat":29.460814,
      "long":-98.678754,
      "price":3,
      "cuisines":[
                  "Bar",
                  "Burgers"
                  ],
      "reserve_url":"http://www.opentable.com/single.aspx?rid=27370",
      "mobile_reserve_url":"http://mobile.opentable.com/opentable/?restId=27370",
      "image_url":"https://resizer.otstatic.com/v2/profiles/legacy/27370.jpg"
   },
   {
      "id":11557,
      "name":"Bohanan's Prime Steaks and Seafood",
      "address":"219 East Houston Street",
      "city":"San Antonio",
      "state":"TX",
      "area":"San Antonio",
      "postal_code":"78205",
      "country":"US",
      "phone":"2104722600",
      "lat":29.426478,
      "long":-98.490605,
      "price":3,
      "cuisines":[
                  "Steak",
                  "Seafood"
                  ],
      "reserve_url":"http://www.opentable.com/single.aspx?rid=11557",
      "mobile_reserve_url":"http://mobile.opentable.com/opentable/?restId=11557",
      "image_url":"https://resizer.otstatic.com/v2/profiles/legacy/11557.jpg"
   },
   {
      "id":13357,
      "name":"Palm Restaurant - San Antonio",
      "address":"233 East Houston Street",
      "city":"San Antonio",
      "state":"TX",
      "area":"San Antonio",
      "postal_code":"78205",
      "country":"US",
      "phone":"2102267256",
      "lat":29.426484,
      "long":-98.49025,
      "price":3,
      "cuisines":[
                  "Organic",
                  "Californian"
                  ],
      "reserve_url":"http://www.opentable.com/single.aspx?rid=13357",
      "mobile_reserve_url":"http://mobile.opentable.com/opentable/?restId=13357",
      "image_url":"https://resizer.otstatic.com/v2/profiles/legacy/13357.jpg"
   },
   {
      "id":79162,
      "name":"Stone Werks - The Vineyard",
      "address":"1201 N Loop 1604 W #101",
      "city":"San Antonio",
      "state":"TX",
      "area":"San Antonio",
      "postal_code":"78258",
      "country":"US",
      "phone":"2107640400x",
      "lat":29.609516,
      "long":-98.509329,
      "price":2,
      "cuisines":[
                  "Wine",
                  "Seafood"
                  ],
      "reserve_url":"http://www.opentable.com/single.aspx?rid=79162",
      "mobile_reserve_url":"http://mobile.opentable.com/opentable/?restId=79162",
      "image_url":"https://resizer.otstatic.com/v2/profiles/legacy/79162.jpg"
   },
   {
      "id":28321,
      "name":"Kona Grill - San Antonio",
      "address":"15900 La Cantera Parkway",
      "city":"San Antonio",
      "state":"TX",
      "area":"San Antonio",
      "postal_code":"78256",
      "country":"US",
      "phone":"2108775355",
      "lat":29.589228,
      "long":-98.619623,
      "price":2,
      "cuisines":[
                  "Bistro",
                  "Continental"
                  ],
      "reserve_url":"http://www.opentable.com/single.aspx?rid=28321",
      "mobile_reserve_url":"http://mobile.opentable.com/opentable/?restId=28321",
      "image_url":"https://resizer.otstatic.com/v2/profiles/legacy/28321.jpg"
   },
   {
      "id":57577,
      "name":"Esquire Tavern",
      "address":"155 East Commerce",
      "city":"San Antonio",
      "state":"TX",
      "area":"San Antonio",
      "postal_code":"78205",
      "country":"US",
      "phone":"2102222521",
      "lat":29.424852,
      "long":-98.491744,
      "price":2,
      "cuisines":[
                  "American",
                  "Bar"
                  ],
      "reserve_url":"http://www.opentable.com/single.aspx?rid=57577",
      "mobile_reserve_url":"http://mobile.opentable.com/opentable/?restId=57577",
      "image_url":"https://resizer.otstatic.com/v2/profiles/legacy/57577.jpg"
   },
   {
      "id":145354,
      "name":"Pericos - Huebner",
      "address":"11075 IH-10 W",
      "city":"San Antonio",
      "state":"TX",
      "area":"San Antonio",
      "postal_code":"78230",
      "country":"US",
      "phone":"2106913636",
      "lat":29.547279,
      "long":-98.581289,
      "price":2,
      "cuisines":[
                  "French",
                  "Caribbean"
                  ],
      "reserve_url":"http://www.opentable.com/single.aspx?rid=145354",
      "mobile_reserve_url":"http://mobile.opentable.com/opentable/?restId=145354",
      "image_url":"https://resizer.otstatic.com/v2/profiles/legacy/145354.jpg"
   },
   {
      "id":39382,
      "name":"Fogo de Chao Brazilian Steakhouse - San Antonio",
      "address":"849 E. Commerce Street",
      "city":"San Antonio",
      "state":"TX",
      "area":"San Antonio",
      "postal_code":"78205",
      "country":"US",
      "phone":"2102271700x",
      "lat":29.423554,
      "long":-98.485332,
      "price":4,
      "cuisines":[
                  "Steak",
                  "Seafood"
                  ],
      "reserve_url":"http://www.opentable.com/single.aspx?rid=39382",
      "mobile_reserve_url":"http://mobile.opentable.com/opentable/?restId=39382",
      "image_url":"https://resizer.otstatic.com/v2/profiles/legacy/39382.jpg"
   },
   {
      "id":149101,
      "name":"Tre Trattoria",
      "address":"4003 Broadway St",
      "city":"San Antonio",
      "state":"TX",
      "area":"San Antonio",
      "postal_code":"78209-6313",
      "country":"US",
      "phone":"2108050333",
      "lat":29.463601,
      "long":-98.465702,
      "price":2,
      "cuisines":[
                  "Italian",
                  "Wine"
                  ],
      "reserve_url":"http://www.opentable.com/single.aspx?rid=149101",
      "mobile_reserve_url":"http://mobile.opentable.com/opentable/?restId=149101",
      "image_url":"https://resizer.otstatic.com/v2/profiles/legacy/149101.jpg"
   },
   {
      "id":149098,
      "name":"Umai Mi - Modern Asian Restaurant & Bar",
      "address":"555 W Bitters Rd.",
      "city":"San Antonio",
      "state":"TX",
      "area":"San Antonio",
      "postal_code":"78216",
      "country":"US",
      "phone":"2104960555x",
      "lat":29.578934,
      "long":-98.499352,
      "price":2,
      "cuisines":[
                  "Japanese",
                  "Panasian"
                  ],
      "reserve_url":"http://www.opentable.com/single.aspx?rid=149098",
      "mobile_reserve_url":"http://mobile.opentable.com/opentable/?restId=149098",
      "image_url":"https://resizer.otstatic.com/v2/profiles/legacy/149098.jpg"
   },
   {
      "id":145141,
      "name":"Va Bene",
      "address":"15900 La Cantera Pkwy",
      "city":"San Antonio",
      "state":"TX",
      "area":"San Antonio",
      "postal_code":"78256",
      "country":"US",
      "phone":"2106411511",
      "lat":29.592179,
      "long":-98.613796,
      "price":2,
      "cuisines":[
                  "Italian",
                  "Organic"
                  ],
      "reserve_url":"http://www.opentable.com/single.aspx?rid=145141",
      "mobile_reserve_url":"http://mobile.opentable.com/opentable/?restId=145141",
      "image_url":"https://resizer.otstatic.com/v2/profiles/legacy/145141.jpg"
   },
   {
      "id":3104,
      "name":"Morton's The Steakhouse - San Antonio",
      "address":"300 E. Crockett Street",
      "city":"San Antonio",
      "state":"TX",
      "area":"San Antonio",
      "postal_code":"78205",
      "country":"US",
      "phone":"2102280700",
      "lat":29.4236,
      "long":-98.487411,
      "price":4,
      "cuisines":[
                  "Steak",
                  "Seafood"
                  ],
      "reserve_url":"http://www.opentable.com/single.aspx?rid=3104",
      "mobile_reserve_url":"http://mobile.opentable.com/opentable/?restId=3104",
      "image_url":"https://resizer.otstatic.com/v2/profiles/legacy/3104.jpg"
   },
   {
      "id":8010,
      "name":"Cappy's Restaurant",
      "address":"5011 Broadway",
      "city":"San Antonio",
      "state":"TX",
      "area":"San Antonio",
      "postal_code":"78209",
      "country":"US",
      "phone":"2108289669x",
      "lat":29.472653,
      "long":-98.462892,
      "price":3,
      "cuisines":[
                  "South American",
                  "Latin"
                  ],
      "reserve_url":"http://www.opentable.com/single.aspx?rid=8010",
      "mobile_reserve_url":"http://mobile.opentable.com/opentable/?restId=8010",
      "image_url":"https://resizer.otstatic.com/v2/profiles/legacy/8010.jpg"
   },
   {
      "id":11788,
      "name":"Silo Elevated Cuisine - 1604",
      "address":"434 N.Loop 1604 West",
      "city":"San Antonio",
      "state":"TX",
      "area":"San Antonio",
      "postal_code":"78232",
      "country":"US",
      "phone":"2104838989x",
      "lat":29.608136,
      "long":-98.498378,
      "price":2,
      "cuisines":[
                  "Organic",
                  "Californian"
                  ],
      "reserve_url":"http://www.opentable.com/single.aspx?rid=11788",
      "mobile_reserve_url":"http://mobile.opentable.com/opentable/?restId=11788",
      "image_url":"https://resizer.otstatic.com/v2/profiles/legacy/11788.jpg"
   },
   {
      "id":140956,
      "name":"Springhouse Cafe - Hyatt Regency",
      "address":"9800 Hyatt Resort Drive",
      "city":"San Antonio",
      "state":"TX",
      "area":"San Antonio",
      "postal_code":"78251",
      "country":"US",
      "phone":"2105204000",
      "lat":29.460641,
      "long":-98.680971,
      "price":2,
      "cuisines":[
                  "Southern",
                  "Comfort"
                  ],
      "reserve_url":"http://www.opentable.com/single.aspx?rid=140956",
      "mobile_reserve_url":"http://mobile.opentable.com/opentable/?restId=140956",
      "image_url":"https://resizer.otstatic.com/v2/profiles/legacy/140956.jpg"
   },
   {
      "id":20608,
      "name":"Sushi Zushi - Stone Oak",
      "address":"18720 Stone Oak Pkwy",
      "city":"San Antonio",
      "state":"TX",
      "area":"San Antonio",
      "postal_code":"78258",
      "country":"US",
      "phone":"2105456100",
      "lat":29.610211,
      "long":-98.49285,
      "price":2,
      "cuisines":[
                  "Japanese",
                  "Sushi"
                  ],
      "reserve_url":"http://www.opentable.com/single.aspx?rid=20608",
      "mobile_reserve_url":"http://mobile.opentable.com/opentable/?restId=20608",
      "image_url":"https://resizer.otstatic.com/v2/profiles/legacy/20608.jpg"
   },
   {
      "id":1563,
      "name":"Piatti - San Antonio",
      "address":"255 East Basse Street",
      "city":"San Antonio",
      "state":"TX",
      "area":"San Antonio",
      "postal_code":"78209",
      "country":"US",
      "phone":"2108320300x",
      "lat":29.493148,
      "long":-98.479701,
      "price":2,
      "cuisines":[
                  "Italian",
                  "Mediterranean"
                  ],
      "reserve_url":"http://www.opentable.com/single.aspx?rid=1563",
      "mobile_reserve_url":"http://mobile.opentable.com/opentable/?restId=1563",
      "image_url":"https://resizer.otstatic.com/v2/profiles/legacy/1563.jpg"
   },
   {
      "id":148879,
      "name":"Werner's, The Culinary Experts Prime Steak and Seafood",
      "address":"16111 San Pedro",
      "city":"San Antonio",
      "state":"TX",
      "area":"San Antonio",
      "postal_code":"78232",
      "country":"US",
      "phone":"2104902295",
      "lat":29.589006,
      "long":-98.475702,
      "price":3,
      "cuisines":[
                  "Prime Rib",
                  "Steak"
                  ],
      "reserve_url":"http://www.opentable.com/single.aspx?rid=148879",
      "mobile_reserve_url":"http://mobile.opentable.com/opentable/?restId=148879",
      "image_url":"https://resizer.otstatic.com/v2/profiles/legacy/148879.jpg"
   },
   {
      "id":4009,
      "name":"Ruth's Chris Steak House - San Antonio (Airport)",
      "address":"7720 Jones Maltsberger",
      "city":"San Antonio",
      "state":"TX",
      "area":"San Antonio",
      "postal_code":"78216",
      "country":"US",
      "phone":"2108215051x",
      "lat":29.5057,
      "long":-98.4817,
      "price":3,
      "cuisines":[
                  "Seafood",
                  "International"
                  ],
      "reserve_url":"http://www.opentable.com/single.aspx?rid=4009",
      "mobile_reserve_url":"http://mobile.opentable.com/opentable/?restId=4009",
      "image_url":"https://resizer.otstatic.com/v2/profiles/legacy/4009.jpg"
   },
   {
      "id":106012,
      "name":"Luciano Restaurant",
      "address":"849 E. Commerce",
      "city":"San Antonio",
      "state":"TX",
      "area":"San Antonio",
      "postal_code":"78205",
      "country":"US",
      "phone":"2102230500x",
      "lat":29.423622,
      "long":-98.485358,
      "price":2,
      "cuisines":[
                  "Italian",
                  "Pizza"
                  ],
      "reserve_url":"http://www.opentable.com/single.aspx?rid=106012",
      "mobile_reserve_url":"http://mobile.opentable.com/opentable/?restId=106012",
      "image_url":"https://resizer.otstatic.com/v2/profiles/legacy/106012.jpg"
   },
   {
      "id":18169,
      "name":"Wildfish Seafood Grille - San Antonio",
      "address":"1834 N Loop 1604 W",
      "city":"San Antonio",
      "state":"TX",
      "area":"San Antonio",
      "postal_code":"78248",
      "country":"US",
      "phone":"2104931600x",
      "lat":29.607658,
      "long":-98.520953,
      "price":2,
      "cuisines":[
                  "Organic",
                  "American"
                  ],
      "reserve_url":"http://www.opentable.com/single.aspx?rid=18169",
      "mobile_reserve_url":"http://mobile.opentable.com/opentable/?restId=18169",
      "image_url":"https://resizer.otstatic.com/v2/profiles/legacy/18169.jpg"
   },
   {
      "id":7137,
      "name":"Paloma Blanca Mexican Cuisine",
      "address":"5800 Broadway",
      "city":"San Antonio",
      "state":"TX",
      "area":"San Antonio",
      "postal_code":"78209",
      "country":"US",
      "phone":"2108226151",
      "lat":29.479918,
      "long":-98.464617,
      "price":2,
      "cuisines":[
                  "Mexican",
                  "Tapas"
                  ],
      "reserve_url":"http://www.opentable.com/single.aspx?rid=7137",
      "mobile_reserve_url":"http://mobile.opentable.com/opentable/?restId=7137",
      "image_url":"https://resizer.otstatic.com/v2/profiles/legacy/7137.jpg"
   },
   {
      "id":16111,
      "name":"Kirby's Prime Steakhouse - San Antonio",
      "address":"123 N. Loop 1604",
      "city":"San Antonio",
      "state":"TX",
      "area":"San Antonio",
      "postal_code":"78232",
      "country":"US",
      "phone":"2104042221",
      "lat":29.609434,
      "long":-98.490846,
      "price":3,
      "cuisines":[
                  "Prime Rib",
                  "Steak"
                  ],
      "reserve_url":"http://www.opentable.com/single.aspx?rid=16111",
      "mobile_reserve_url":"http://mobile.opentable.com/opentable/?restId=16111",
      "image_url":"https://resizer.otstatic.com/v2/profiles/legacy/16111.jpg"
   },
   {
      "id":20602,
      "name":"Sushi Zushi - Colonnade",
      "address":"9867 IH-10 W",
      "city":"San Antonio",
      "state":"TX",
      "area":"San Antonio",
      "postal_code":"78230",
      "country":"US",
      "phone":"2106913332",
      "lat":29.538218,
      "long":-98.570166,
      "price":2,
      "cuisines":[
                  "Japanese",
                  "Sushi"
                  ],
      "reserve_url":"http://www.opentable.com/single.aspx?rid=20602",
      "mobile_reserve_url":"http://mobile.opentable.com/opentable/?restId=20602",
      "image_url":"https://resizer.otstatic.com/v2/profiles/legacy/20602.jpg"
   },
   {
      "id":11785,
      "name":"Silo Elevated Cuisine - Alamo Heights",
      "address":"1133 Austin Hwy",
      "city":"San Antonio",
      "state":"TX",
      "area":"San Antonio",
      "postal_code":"78209",
      "country":"US",
      "phone":"(210) 824-8686x",
      "lat":29.486982,
      "long":-98.448073,
      "price":2,
      "cuisines":[
                  "Organic",
                  "Southern"
                  ],
      "reserve_url":"http://www.opentable.com/single.aspx?rid=11785",
      "mobile_reserve_url":"http://mobile.opentable.com/opentable/?restId=11785",
      "image_url":"https://resizer.otstatic.com/v2/profiles/legacy/11785.jpg"
   }
]