[
   {
      "id":18952,
      "name":"Ibiza Food and Wine Bar",
      "address":"2450 Louisiana St.",
      "city":"Houston",
      "state":"TX",
      "area":"Houston",
      "postal_code":"77006",
      "country":"US",
      "phone":"7135240004",
      "lat":29.747429,
      "long":-95.376861,
      "price":2,
      "cuisines":[
                  "International",
                  "Wine"
                  ],
      "reserve_url":"http://www.opentable.com/single.aspx?rid=18952",
      "mobile_reserve_url":"http://mobile.opentable.com/opentable/?restId=18952",
      "image_url":"https://resizer.otstatic.com/v2/profiles/legacy/18952.jpg"
   },
   {
      "id":114100,
      "name":"The Capital Grille - Houston - CityCentre",
      "address":"840 W Sam Houston Parkway N",
      "city":"Houston",
      "state":"TX",
      "area":"Houston",
      "postal_code":"77024",
      "country":"US",
      "phone":"7134635051",
      "lat":29.780186,
      "long":-95.561963,
      "price":4,
      "cuisines":[
                  "Steak",
                  "Seafood"
                  ],
      "reserve_url":"http://www.opentable.com/single.aspx?rid=114100",
      "mobile_reserve_url":"http://mobile.opentable.com/opentable/?restId=114100",
      "image_url":"https://resizer.otstatic.com/v2/profiles/legacy/114100.jpg"
   },
   {
      "id":15802,
      "name":"Perry's Steakhouse & Grille - Champions",
      "address":"9730 Cypresswood Dr.",
      "city":"Houston",
      "state":"TX",
      "area":"Houston",
      "postal_code":"77070",
      "country":"US",
      "phone":"2819705999x",
      "lat":29.989467,
      "long":-95.553302,
      "price":3,
      "cuisines":[
                  "Steak",
                  "Seafood"
                  ],
      "reserve_url":"http://www.opentable.com/single.aspx?rid=15802",
      "mobile_reserve_url":"http://mobile.opentable.com/opentable/?restId=15802",
      "image_url":"https://resizer.otstatic.com/v2/profiles/legacy/15802.jpg"
   },
   {
      "id":3898,
      "name":"Post Oak Grill",
      "address":"1415 S. Post Oak Ln.",
      "city":"Houston",
      "state":"TX",
      "area":"Houston",
      "postal_code":"77056",
      "country":"US",
      "phone":"7139939966x",
      "lat":29.7543,
      "long":-95.4631,
      "price":3,
      "cuisines":[
                  "Steak",
                  "Burgers"
                  ],
      "reserve_url":"http://www.opentable.com/single.aspx?rid=3898",
      "mobile_reserve_url":"http://mobile.opentable.com/opentable/?restId=3898",
      "image_url":"https://resizer.otstatic.com/v2/profiles/legacy/3898.jpg"
   },
   {
      "id":882,
      "name":"Churrascos - River Oaks",
      "address":"2055 Westheimer at Shepherd",
      "city":"Houston",
      "state":"TX",
      "area":"Houston",
      "postal_code":"77098",
      "country":"US",
      "phone":"7135278300x",
      "lat":29.742524,
      "long":-95.410074,
      "price":3,
      "cuisines":[
                  "South American",
                  "Peruvian"
                  ],
      "reserve_url":"http://www.opentable.com/single.aspx?rid=882",
      "mobile_reserve_url":"http://mobile.opentable.com/opentable/?restId=882",
      "image_url":"https://resizer.otstatic.com/v2/profiles/legacy/882.jpg"
   },
   {
      "id":104785,
      "name":"Seasons 52 - Westheimer",
      "address":"4410 Westheimer",
      "city":"Houston",
      "state":"TX",
      "area":"Houston",
      "postal_code":"77027",
      "country":"US",
      "phone":"7136215452",
      "lat":29.742493,
      "long":-95.451832,
      "price":2,
      "cuisines":[
                  "American",
                  "Bistro"
                  ],
      "reserve_url":"http://www.opentable.com/single.aspx?rid=104785",
      "mobile_reserve_url":"http://mobile.opentable.com/opentable/?restId=104785",
      "image_url":"https://resizer.otstatic.com/v2/profiles/legacy/104785.jpg"
   },
   {
      "id":109195,
      "name":"Palm Restaurant - Houston",
      "address":"6100 Westheimer",
      "city":"Houston",
      "state":"TX",
      "area":"Houston",
      "postal_code":"77057",
      "country":"US",
      "phone":"7139772544",
      "lat":29.738684,
      "long":-95.490446,
      "price":3,
      "cuisines":[
                  "Steak",
                  "Seafood"
                  ],
      "reserve_url":"http://www.opentable.com/single.aspx?rid=109195",
      "mobile_reserve_url":"http://mobile.opentable.com/opentable/?restId=109195",
      "image_url":"https://resizer.otstatic.com/v2/profiles/legacy/109195.jpg"
   },
   {
      "id":151558,
      "name":"Mascalzone",
      "address":"12126 Westheimer",
      "city":"Houston",
      "state":"TX",
      "area":"Houston",
      "postal_code":"77077",
      "country":"US",
      "phone":"8323285151",
      "lat":29.736826,
      "long":-95.59461,
      "price":2,
      "cuisines":[
                  "Italian",
                  "Seafood"
                  ],
      "reserve_url":"http://www.opentable.com/single.aspx?rid=151558",
      "mobile_reserve_url":"http://mobile.opentable.com/opentable/?restId=151558",
      "image_url":"https://resizer.otstatic.com/v2/profiles/legacy/151558.jpg"
   },
   {
      "id":2058,
      "name":"The Capital Grille - Houston",
      "address":"5365 Westheimer Road",
      "city":"Houston",
      "state":"TX",
      "area":"Houston",
      "postal_code":"77056",
      "country":"US",
      "phone":"7136234600x",
      "lat":29.739294,
      "long":-95.470097,
      "price":4,
      "cuisines":[
                  "Steak",
                  "Seafood"
                  ],
      "reserve_url":"http://www.opentable.com/single.aspx?rid=2058",
      "mobile_reserve_url":"http://mobile.opentable.com/opentable/?restId=2058",
      "image_url":"https://resizer.otstatic.com/v2/profiles/legacy/2058.jpg"
   },
   {
      "id":27151,
      "name":"Tony Mandola's",
      "address":"1212 Waugh Drive",
      "city":"Houston",
      "state":"TX",
      "area":"Houston",
      "postal_code":"77019",
      "country":"US",
      "phone":"7135283474",
      "lat":29.75574,
      "long":-95.398404,
      "price":3,
      "cuisines":[
                  "Pizza",
                  "Seafood"
                  ],
      "reserve_url":"http://www.opentable.com/single.aspx?rid=27151",
      "mobile_reserve_url":"http://mobile.opentable.com/opentable/?restId=27151",
      "image_url":"https://resizer.otstatic.com/v2/profiles/legacy/27151.jpg"
   },
   {
      "id":883,
      "name":"Churrascos - Westchase",
      "address":"9705 Westheimer at Gessner",
      "city":"Houston",
      "state":"TX",
      "area":"Houston",
      "postal_code":"77042",
      "country":"US",
      "phone":"7139521988x",
      "lat":29.737063,
      "long":-95.539263,
      "price":2,
      "cuisines":[
                  "Mexican",
                  "Seafood"
                  ],
      "reserve_url":"http://www.opentable.com/single.aspx?rid=883",
      "mobile_reserve_url":"http://mobile.opentable.com/opentable/?restId=883",
      "image_url":"https://resizer.otstatic.com/v2/profiles/legacy/883.jpg"
   },
   {
      "id":28318,
      "name":"Kona Grill - Houston",
      "address":"5061 Westheimer Road",
      "city":"Houston",
      "state":"TX",
      "area":"Houston",
      "postal_code":"77056",
      "country":"US",
      "phone":"7138779191",
      "lat":29.740639,
      "long":-95.463351,
      "price":2,
      "cuisines":[
                  "International",
                  "Seafood"
                  ],
      "reserve_url":"http://www.opentable.com/single.aspx?rid=28318",
      "mobile_reserve_url":"http://mobile.opentable.com/opentable/?restId=28318",
      "image_url":"https://resizer.otstatic.com/v2/profiles/legacy/28318.jpg"
   },
   {
      "id":91921,
      "name":"Antica Osteria",
      "address":"2311 Bissonnet Street",
      "city":"Houston",
      "state":"TX",
      "area":"Houston",
      "postal_code":"77005",
      "country":"US",
      "phone":"7135211155",
      "lat":29.725282,
      "long":-95.413273,
      "price":3,
      "cuisines":[
                  "Italian",
                  "Seafood"
                  ],
      "reserve_url":"http://www.opentable.com/single.aspx?rid=91921",
      "mobile_reserve_url":"http://mobile.opentable.com/opentable/?restId=91921",
      "image_url":"https://resizer.otstatic.com/v2/profiles/legacy/91921.jpg"
   },
   {
      "id":111100,
      "name":"Goode Co. Seafood - Katy Freeway",
      "address":"10211 Katy Freeway",
      "city":"Houston",
      "state":"TX",
      "area":"Houston",
      "postal_code":"77024",
      "country":"US",
      "phone":"7134647933x",
      "lat":29.784194,
      "long":-95.549054,
      "price":3,
      "cuisines":[
                  "Californian",
                  "Mexican"
                  ],
      "reserve_url":"http://www.opentable.com/single.aspx?rid=111100",
      "mobile_reserve_url":"http://mobile.opentable.com/opentable/?restId=111100",
      "image_url":"https://resizer.otstatic.com/v2/profiles/legacy/111100.jpg"
   },
   {
      "id":797,
      "name":"Ouisie's Table",
      "address":"3939 San Felipe Road",
      "city":"Houston",
      "state":"TX",
      "area":"Houston",
      "postal_code":"77027",
      "country":"US",
      "phone":"7135282264x",
      "lat":29.746663,
      "long":-95.442796,
      "price":2,
      "cuisines":[
                  "American",
                  "Wine"
                  ],
      "reserve_url":"http://www.opentable.com/single.aspx?rid=797",
      "mobile_reserve_url":"http://mobile.opentable.com/opentable/?restId=797",
      "image_url":"https://resizer.otstatic.com/v2/profiles/legacy/797.jpg"
   },
   {
      "id":150832,
      "name":"Radio Milano",
      "address":"800 Sorella Court",
      "city":"Houston",
      "state":"TX",
      "area":"Houston",
      "postal_code":"77024",
      "country":"US",
      "phone":"7138273545",
      "lat":29.779774,
      "long":-95.561656,
      "price":2,
      "cuisines":[
                  "Mexican",
                  "Italian"
                  ],
      "reserve_url":"http://www.opentable.com/single.aspx?rid=150832",
      "mobile_reserve_url":"http://mobile.opentable.com/opentable/?restId=150832",
      "image_url":"https://resizer.otstatic.com/v2/profiles/legacy/150832.jpg"
   },
   {
      "id":39943,
      "name":"Fleming's Steakhouse - Houston Beltway",
      "address":"788 W. Sam Houston Pkwy North",
      "city":"Houston",
      "state":"TX",
      "area":"Houston",
      "postal_code":"77024",
      "country":"US",
      "phone":"7138271120",
      "lat":29.778333,
      "long":-95.562476,
      "price":3,
      "cuisines":[
                  "Steak",
                  "Bar"
                  ],
      "reserve_url":"http://www.opentable.com/single.aspx?rid=39943",
      "mobile_reserve_url":"http://mobile.opentable.com/opentable/?restId=39943",
      "image_url":"https://resizer.otstatic.com/v2/profiles/legacy/39943.jpg"
   },
   {
      "id":1812,
      "name":"RDG + Bar Annie",
      "address":"1800 Post Oak",
      "city":"Houston",
      "state":"TX",
      "area":"Houston",
      "postal_code":"77056",
      "country":"US",
      "phone":"7138401111x",
      "lat":29.747812,
      "long":-95.462798,
      "price":3,
      "cuisines":[
                  "Burgers",
                  "Bar"
                  ],
      "reserve_url":"http://www.opentable.com/single.aspx?rid=1812",
      "mobile_reserve_url":"http://mobile.opentable.com/opentable/?restId=1812",
      "image_url":"https://resizer.otstatic.com/v2/profiles/legacy/1812.jpg"
   },
   {
      "id":133948,
      "name":"Gyu-Kaku - Houston",
      "address":"510 Gray St",
      "city":"Houston",
      "state":"TX",
      "area":"Houston",
      "postal_code":"77002",
      "country":"US",
      "phone":"7137509520",
      "lat":29.750796,
      "long":-95.375609,
      "price":2,
      "cuisines":[
                  "Panasian",
                  "Vietnamese"
                  ],
      "reserve_url":"http://www.opentable.com/single.aspx?rid=133948",
      "mobile_reserve_url":"http://mobile.opentable.com/opentable/?restId=133948",
      "image_url":"https://resizer.otstatic.com/v2/profiles/legacy/133948.jpg"
   },
   {
      "id":32428,
      "name":"Vic & Anthony's Steakhouse - Houston",
      "address":"1510 Texas St",
      "city":"Houston",
      "state":"TX",
      "area":"Houston",
      "postal_code":"77002",
      "country":"US",
      "phone":"7132281111",
      "lat":29.757169,
      "long":-95.358061,
      "price":3,
      "cuisines":[
                  "Steak",
                  "Seafood"
                  ],
      "reserve_url":"http://www.opentable.com/single.aspx?rid=32428",
      "mobile_reserve_url":"http://mobile.opentable.com/opentable/?restId=32428",
      "image_url":"https://resizer.otstatic.com/v2/profiles/legacy/32428.jpg"
   },
   {
      "id":39178,
      "name":"Brennan's of Houston",
      "address":"3300 Smith Street",
      "city":"Houston",
      "state":"TX",
      "area":"Houston",
      "postal_code":"77006",
      "country":"US",
      "phone":"7135229711x",
      "lat":29.742901,
      "long":-95.381439,
      "price":3,
      "cuisines":[
                  "Steak",
                  "Bar"
                  ],
      "reserve_url":"http://www.opentable.com/single.aspx?rid=39178",
      "mobile_reserve_url":"http://mobile.opentable.com/opentable/?restId=39178",
      "image_url":"https://resizer.otstatic.com/v2/profiles/legacy/39178.jpg"
   },
   {
      "id":141040,
      "name":"Urban Kitchen",
      "address":"14008 Memorial Dr.",
      "city":"Houston",
      "state":"TX",
      "area":"Houston",
      "postal_code":"77079",
      "country":"US",
      "phone":"2815317550",
      "lat":29.771494,
      "long":-95.590547,
      "price":2,
      "cuisines":[
                  "Organic",
                  "Californian"
                  ],
      "reserve_url":"http://www.opentable.com/single.aspx?rid=141040",
      "mobile_reserve_url":"http://mobile.opentable.com/opentable/?restId=141040",
      "image_url":"https://resizer.otstatic.com/v2/profiles/legacy/141040.jpg"
   },
   {
      "id":70267,
      "name":"Carmelo's Ristorante Italiano - Houston",
      "address":"14795 Memorial Dr",
      "city":"Houston",
      "state":"TX",
      "area":"Houston",
      "postal_code":"77079",
      "country":"US",
      "phone":"2815310696x",
      "lat":29.77132,
      "long":-95.612633,
      "price":2,
      "cuisines":[
                  "Pizza",
                  "Italian"
                  ],
      "reserve_url":"http://www.opentable.com/single.aspx?rid=70267",
      "mobile_reserve_url":"http://mobile.opentable.com/opentable/?restId=70267",
      "image_url":"https://resizer.otstatic.com/v2/profiles/legacy/70267.jpg"
   },
   {
      "id":59398,
      "name":"Buca di Beppo - Houston - Speedway",
      "address":"5192 Buffalo Speedway",
      "city":"Houston",
      "state":"TX",
      "area":"Houston",
      "postal_code":"77005",
      "country":"US",
      "phone":"7136652822x",
      "lat":29.727594,
      "long":-95.427958,
      "price":2,
      "cuisines":[
                  "Peruvian",
                  "International"
                  ],
      "reserve_url":"http://www.opentable.com/single.aspx?rid=59398",
      "mobile_reserve_url":"http://mobile.opentable.com/opentable/?restId=59398",
      "image_url":"https://resizer.otstatic.com/v2/profiles/legacy/59398.jpg"
   },
   {
      "id":39601,
      "name":"Cullen's",
      "address":"11500 Space Center Blvd",
      "city":"Houston",
      "state":"TX",
      "area":"Houston",
      "postal_code":"77059",
      "country":"US",
      "phone":"2819912000x",
      "lat":29.62453,
      "long":-95.14242,
      "price":2,
      "cuisines":[
                  "Burgers",
                  "American"
                  ],
      "reserve_url":"http://www.opentable.com/single.aspx?rid=39601",
      "mobile_reserve_url":"http://mobile.opentable.com/opentable/?restId=39601",
      "image_url":"https://resizer.otstatic.com/v2/profiles/legacy/39601.jpg"
   }
]