[
   {
      "id":147475,
      "name":"Union Provisions",
      "address":"513 King Street",
      "city":"Charleston",
      "state":"SC",
      "area":"South Carolina",
      "postal_code":"29403",
      "country":"US",
      "phone":"8436410821x",
      "lat":32.790291,
      "long":-79.93936,
      "price":2,
      "cuisines":[
                  "Pizza",
                  "Italian"
                  ],
      "reserve_url":"http://www.opentable.com/single.aspx?rid=147475",
      "mobile_reserve_url":"http://mobile.opentable.com/opentable/?restId=147475",
      "image_url":"https://resizer.otstatic.com/v2/profiles/legacy/147475.jpg"
   },
   {
      "id":3751,
      "name":"McCrady's",
      "address":"2 Unity Alley",
      "city":"Charleston",
      "state":"SC",
      "area":"South Carolina",
      "postal_code":"29401",
      "country":"US",
      "phone":"8435770025x1",
      "lat":32.778,
      "long":-79.927,
      "price":4,
      "cuisines":[
                  "Pizza",
                  "Bar"
                  ],
      "reserve_url":"http://www.opentable.com/single.aspx?rid=3751",
      "mobile_reserve_url":"http://mobile.opentable.com/opentable/?restId=3751",
      "image_url":"https://resizer.otstatic.com/v2/profiles/legacy/3751.jpg"
   },
   {
      "id":147913,
      "name":"The Drawing Room - The Vendue",
      "address":"19 Vendue Range",
      "city":"Charleston",
      "state":"SC",
      "area":"South Carolina",
      "postal_code":"29401",
      "country":"US",
      "phone":"8434142334x",
      "lat":32.778614,
      "long":-79.926474,
      "price":2,
      "cuisines":[
                  "Steak",
                  "Wine"
                  ],
      "reserve_url":"http://www.opentable.com/single.aspx?rid=147913",
      "mobile_reserve_url":"http://mobile.opentable.com/opentable/?restId=147913",
      "image_url":"https://resizer.otstatic.com/v2/profiles/legacy/147913.jpg"
   },
   {
      "id":28387,
      "name":"Halls Chophouse",
      "address":"434 King St.",
      "city":"Charleston",
      "state":"SC",
      "area":"South Carolina",
      "postal_code":"29403",
      "country":"US",
      "phone":"8437270090",
      "lat":32.788527,
      "long":-79.937803,
      "price":3,
      "cuisines":[
                  "Steak",
                  "Prime Rib"
                  ],
      "reserve_url":"http://www.opentable.com/single.aspx?rid=28387",
      "mobile_reserve_url":"http://mobile.opentable.com/opentable/?restId=28387",
      "image_url":"https://resizer.otstatic.com/v2/profiles/legacy/28387.jpg"
   },
   {
      "id":1775,
      "name":"Cypress",
      "address":"167 East Bay Street",
      "city":"Charleston",
      "state":"SC",
      "area":"South Carolina",
      "postal_code":"29401",
      "country":"US",
      "phone":"8437270111x",
      "lat":32.778548,
      "long":-79.927199,
      "price":3,
      "cuisines":[
                  "Brewery",
                  "Burgers"
                  ],
      "reserve_url":"http://www.opentable.com/single.aspx?rid=1775",
      "mobile_reserve_url":"http://mobile.opentable.com/opentable/?restId=1775",
      "image_url":"https://resizer.otstatic.com/v2/profiles/legacy/1775.jpg"
   },
   {
      "id":151654,
      "name":"Middleton Place Restaurant",
      "address":"4300 Ashley River Rd",
      "city":"Charleston",
      "state":"SC",
      "area":"South Carolina",
      "postal_code":"29414",
      "country":"US",
      "phone":"8435566020x",
      "lat":32.899794,
      "long":-80.136505,
      "price":2,
      "cuisines":[
                  "Cuban",
                  "Spanish"
                  ],
      "reserve_url":"http://www.opentable.com/single.aspx?rid=151654",
      "mobile_reserve_url":"http://mobile.opentable.com/opentable/?restId=151654",
      "image_url":"https://resizer.otstatic.com/v2/profiles/legacy/151654.jpg"
   },
   {
      "id":5070,
      "name":"High Cotton - Charleston",
      "address":"199 East Bay Street",
      "city":"Charleston",
      "state":"SC",
      "area":"South Carolina",
      "postal_code":"29401",
      "country":"US",
      "phone":"8437243815x",
      "lat":32.779958,
      "long":-79.927094,
      "price":3, 
      "cuisines":[
                  "Steak",
                  "Southern"
                  ],
      "reserve_url":"http://www.opentable.com/single.aspx?rid=5070",
      "mobile_reserve_url":"http://mobile.opentable.com/opentable/?restId=5070",
      "image_url":"https://resizer.otstatic.com/v2/profiles/legacy/5070.jpg"
   },
   {
      "id":109543,
      "name":"Prohibition",
      "address":"547 King Street",
      "city":"Charleston",
      "state":"SC",
      "area":"South Carolina",
      "postal_code":"29403",
      "country":"US",
      "phone":"8437932964x",
      "lat":32.791141,
      "long":-79.94044,
      "price":2,
      "cuisines":[
                  "Bar",
                  "Brewery"
                  ],
      "reserve_url":"http://www.opentable.com/single.aspx?rid=109543",
      "mobile_reserve_url":"http://mobile.opentable.com/opentable/?restId=109543",
      "image_url":"https://resizer.otstatic.com/v2/profiles/legacy/109543.jpg"
   },
   {
      "id":1774,
      "name":"Blossom",
      "address":"171 East Bay Street",
      "city":"Charleston",
      "state":"SC",
      "area":"South Carolina",
      "postal_code":"29401",
      "country":"US",
      "phone":"8437229200x",
      "lat":32.778919,
      "long":-79.927262,
      "price":2,
      "cuisines":[
                  "Pizza",
                  "Burgers"
                  ],
      "reserve_url":"http://www.opentable.com/single.aspx?rid=1774",
      "mobile_reserve_url":"http://mobile.opentable.com/opentable/?restId=1774",
      "image_url":"https://resizer.otstatic.com/v2/profiles/legacy/1774.jpg"
   },
   {
      "id":148420,
      "name":"Craftsmen Kitchen and Tap House",
      "address":"12 Cumberland Street",
      "city":"Charleston",
      "state":"SC",
      "area":"South Carolina",
      "postal_code":"29401",
      "country":"US",
      "phone":"8435779699x",
      "lat":32.780212,
      "long":-79.927477,
      "price":2,
      "cuisines":[
                  "Brewery",
                  "Tapas"
                  ],
      "reserve_url":"http://www.opentable.com/single.aspx?rid=148420",
      "mobile_reserve_url":"http://mobile.opentable.com/opentable/?restId=148420",
      "image_url":"https://resizer.otstatic.com/v2/profiles/legacy/148420.jpg"
   },
   {
      "id":3750,
      "name":"Fish",
      "address":"442 King Street",
      "city":"Charleston",
      "state":"SC",
      "area":"South Carolina",
      "postal_code":"29403",
      "country":"US",
      "phone":"8437223474x",
      "lat":32.7887,
      "long":-79.9382,
      "price":2,
      "cuisines":[
                  "Seafood",
                  "Burgers"
                  ],
      "reserve_url":"http://www.opentable.com/single.aspx?rid=3750",
      "mobile_reserve_url":"http://mobile.opentable.com/opentable/?restId=3750",
      "image_url":"https://resizer.otstatic.com/v2/profiles/legacy/3750.jpg"
   },
   {
      "id":4574,
      "name":"Oak Steakhouse",
      "address":"17 Broad Street",
      "city":"Charleston",
      "state":"SC",
      "area":"South Carolina",
      "postal_code":"29401",
      "country":"US",
      "phone":"8437224220",
      "lat":32.77676,
      "long":-79.927844,
      "price":3,
      "cuisines":[
                  "Steak",
                  "American"
                  ],
      "reserve_url":"http://www.opentable.com/single.aspx?rid=4574",
      "mobile_reserve_url":"http://mobile.opentable.com/opentable/?restId=4574",
      "image_url":"https://resizer.otstatic.com/v2/profiles/legacy/4574.jpg"
   },
   {
      "id":16522,
      "name":"82 Queen",
      "address":"82 Queen Street",
      "city":"Charleston",
      "state":"SC",
      "area":"South Carolina",
      "postal_code":"29401",
      "country":"US",
      "phone":"8437237591",
      "lat":32.777838,
      "long":-79.93242,
      "price":2,
      "cuisines":[
                  "Pizza",
                  "Italian"
                  ],
      "reserve_url":"http://www.opentable.com/single.aspx?rid=16522",
      "mobile_reserve_url":"http://mobile.opentable.com/opentable/?restId=16522",
      "image_url":"https://resizer.otstatic.com/v2/profiles/legacy/16522.jpg"
   },
   {
      "id":144331,
      "name":"Bushido",
      "address":"1975 Magwood Dr.",
      "city":"Charleston",
      "state":"SC",
      "area":"South Carolina",
      "postal_code":"29414",
      "country":"US",
      "phone":"8435732440x",
      "lat":32.813472,
      "long":-80.041352,
      "price":2,
      "cuisines":[
                  "French",
                  "Mediterranean"
                  ],
      "reserve_url":"http://www.opentable.com/single.aspx?rid=144331",
      "mobile_reserve_url":"http://mobile.opentable.com/opentable/?restId=144331",
      "image_url":"https://resizer.otstatic.com/v2/profiles/legacy/144331.jpg"
   },
   {
      "id":3227,
      "name":"Charleston Grill",
      "address":"224 King Street",
      "city":"Charleston",
      "state":"SC",
      "area":"South Carolina",
      "postal_code":"29401",
      "country":"US",
      "phone":"8435774522x",
      "lat":32.7806,
      "long":-79.9332,
      "price":3,
      "cuisines":[
                  "Pizza",
                  "Prime Rib"
                  ],
      "reserve_url":"http://www.opentable.com/single.aspx?rid=3227",
      "mobile_reserve_url":"http://mobile.opentable.com/opentable/?restId=3227",
      "image_url":"https://resizer.otstatic.com/v2/profiles/legacy/3227.jpg"
   },
   {
      "id":98221,
      "name":"Rutledge Cab Co. - Priority Seating",
      "address":"1300 Rutledge Ave",
      "city":"Charleston",
      "state":"SC",
      "area":"South Carolina",
      "postal_code":"29403",
      "country":"US",
      "phone":"8437201440",
      "lat":32.812743,
      "long":-79.954526,
      "price":2,
      "cuisines":[
                  "Bar",
                  "Steak"
                  ],
      "reserve_url":"http://www.opentable.com/single.aspx?rid=98221",
      "mobile_reserve_url":"http://mobile.opentable.com/opentable/?restId=98221",
      "image_url":"https://resizer.otstatic.com/v2/profiles/legacy/98221.jpg"
   },
   {
      "id":149044,
      "name":"Zero Cafe + Bar - Zero George Hotel",
      "address":"317 East Bay Street",
      "city":"Charleston",
      "state":"SC",
      "area":"South Carolina",
      "postal_code":"29401",
      "country":"US",
      "phone":"8436283480x",
      "lat":32.786681,
      "long":-79.929385,
      "price":3,
      "cuisines":[
                  "Organic",
                  "Californian"
                  ],
      "reserve_url":"http://www.opentable.com/single.aspx?rid=149044",
      "mobile_reserve_url":"http://mobile.opentable.com/opentable/?restId=149044",
      "image_url":"https://resizer.otstatic.com/v2/profiles/legacy/149044.jpg"
   },
   {
      "id":109534,
      "name":"Indaco",
      "address":"526 King Street",
      "city":"Charleston",
      "state":"SC",
      "area":"South Carolina",
      "postal_code":"29403",
      "country":"US",
      "phone":"8437271228x",
      "lat":32.79166,
      "long":-79.939792,
      "price":2,
      "cuisines":[
                  "Cuban",
                  "Spanish"
                  ],
      "reserve_url":"http://www.opentable.com/single.aspx?rid=109534",
      "mobile_reserve_url":"http://mobile.opentable.com/opentable/?restId=109534",
      "image_url":"https://resizer.otstatic.com/v2/profiles/legacy/109534.jpg"
   },
   {
      "id":115996,
      "name":"Barsa Tapas Lounge & Bar",
      "address":"630 King St.",
      "city":"Charleston",
      "state":"SC",
      "area":"South Carolina",
      "postal_code":"29403",
      "country":"US",
      "phone":"8435775393x",
      "lat":32.795286,
      "long":-79.942752,
      "price":2,
      "cuisines":[
                  "Spanish",
                  "Tapas"
                  ],
      "reserve_url":"http://www.opentable.com/single.aspx?rid=115996",
      "mobile_reserve_url":"http://mobile.opentable.com/opentable/?restId=115996",
      "image_url":"https://resizer.otstatic.com/v2/profiles/legacy/115996.jpg"
   },
   {
      "id":115888,
      "name":"The Lot",
      "address":"1977 Maybank Hwy.",
      "city":"Charleston",
      "state":"SC",
      "area":"South Carolina",
      "postal_code":"29412",
      "country":"US",
      "phone":"8432250094x",
      "lat":32.761836,
      "long":-79.987021,
      "price":2,
      "cuisines":[
                  "Southern",
                  "Bistro"
                  ],
      "reserve_url":"http://www.opentable.com/single.aspx?rid=115888",
      "mobile_reserve_url":"http://mobile.opentable.com/opentable/?restId=115888",
      "image_url":"https://resizer.otstatic.com/v2/profiles/legacy/115888.jpg"
   },
   {
      "id":117217,
      "name":"Edmund's Oast",
      "address":"1081 Morrison Drive",
      "city":"Charleston",
      "state":"SC",
      "area":"South Carolina",
      "postal_code":"29403",
      "country":"US",
      "phone":"8437271145x",
      "lat":32.809804,
      "long":-79.94792,
      "price":2,
      "cuisines":[
                  "Pizza",
                  "Burgers"
                  ],
      "reserve_url":"http://www.opentable.com/single.aspx?rid=117217",
      "mobile_reserve_url":"http://mobile.opentable.com/opentable/?restId=117217",
      "image_url":"https://resizer.otstatic.com/v2/profiles/legacy/117217.jpg"
   },
   {
      "id":114547,
      "name":"Bocci's Italian Restaurant",
      "address":"158 Church St",
      "city":"Charleston",
      "state":"SC",
      "area":"South Carolina",
      "postal_code":"29401",
      "country":"US",
      "phone":"8437202121x",
      "lat":32.779884,
      "long":-79.929357,
      "price":2,
      "cuisines":[
                  "Pizza",
                  "Italian"
                  ],
      "reserve_url":"http://www.opentable.com/single.aspx?rid=114547",
      "mobile_reserve_url":"http://mobile.opentable.com/opentable/?restId=114547",
      "image_url":"https://resizer.otstatic.com/v2/profiles/legacy/114547.jpg"
   },
   {
      "id":93595,
      "name":"Leaf",
      "address":"15 Beaufain St.",
      "city":"Charleston",
      "state":"SC",
      "area":"South Carolina",
      "postal_code":"29401",
      "country":"US",
      "phone":"8437932230",
      "lat":32.780854,
      "long":-79.934906,
      "price":2,
      "cuisines":[
                  "Organic",
                  "Italian"
                  ],
      "reserve_url":"http://www.opentable.com/single.aspx?rid=93595",
      "mobile_reserve_url":"http://mobile.opentable.com/opentable/?restId=93595",
      "image_url":"https://resizer.otstatic.com/v2/profiles/legacy/93595.jpg"
   },
   {
      "id":94543,
      "name":"The Ordinary",
      "address":"544 King Street",
      "city":"Charleston",
      "state":"SC",
      "area":"South Carolina",
      "postal_code":"29403",
      "country":"US",
      "phone":"8434147060x",
      "lat":32.792704,
      "long":-79.940192,
      "price":2,
      "cuisines":[
                  "American",
                  "Burgers"
                  ],
      "reserve_url":"http://www.opentable.com/single.aspx?rid=94543",
      "mobile_reserve_url":"http://mobile.opentable.com/opentable/?restId=94543",
      "image_url":"https://resizer.otstatic.com/v2/profiles/legacy/94543.jpg"
   },
   {
      "id":15304,
      "name":"FIG",
      "address":"232 Meeting Street",
      "city":"Charleston",
      "state":"SC",
      "area":"South Carolina",
      "postal_code":"29401",
      "country":"US",
      "phone":"8438055900x",
      "lat":32.782297,
      "long":-79.931739,
      "price":2,
      "cuisines":[
                  "Organic",
                  "Californian"
                  ],
      "reserve_url":"http://www.opentable.com/single.aspx?rid=15304",
      "mobile_reserve_url":"http://mobile.opentable.com/opentable/?restId=15304",
      "image_url":"https://resizer.otstatic.com/v2/profiles/legacy/15304.jpg"
   }
]