[
   {
      "id":145417,
      "name":"Yong Kang Street",
      "address":"3655 Las Vegas Blvd South",
      "city":"Las Vegas",
      "state":"NV",
      "area":"Las Vegas",
      "postal_code":"89109",
      "country":"US",
      "phone":"7028369399",
      "lat":36.111912,
      "long":-115.171269,
      "price":2,
      "cuisines":[
                  "Panasian",
                  "Seafood"
                  ],
      "reserve_url":"http://www.opentable.com/single.aspx?rid=145417",
      "mobile_reserve_url":"http://mobile.opentable.com/opentable/?restId=145417",
      "image_url":"https://resizer.otstatic.com/v2/profiles/legacy/145417.jpg"
   },
   {
      "id":91015,
      "name":"Joel Robuchon - MGM Grand",
      "address":"3799 Las Vegas Blvd South",
      "city":"Las Vegas",
      "state":"NV",
      "area":"Las Vegas",
      "postal_code":"89109",
      "country":"US",
      "phone":"7028917925x",
      "lat":36.101197,
      "long":-115.172426,
      "price":4,
      "cuisines":[
                  "Steak",
                  "Burgers"
                  ],
      "reserve_url":"http://www.opentable.com/single.aspx?rid=91015",
      "mobile_reserve_url":"http://mobile.opentable.com/opentable/?restId=91015",
      "image_url":"https://resizer.otstatic.com/v2/profiles/legacy/91015.jpg"
   },
   {
      "id":96964,
      "name":"Center Cut Steakhouse - Flamingo Las Vegas",
      "address":"3555 Las Vegas Blvd. S",
      "city":"Las Vegas",
      "state":"NV",
      "area":"Las Vegas",
      "postal_code":"89109",
      "country":"US",
      "phone":"7027848821",
      "lat":36.11569,
      "long":-115.171394,
      "price":4,
      "cuisines":[
                  "Italian",
                  "Pizza"
                  ],
      "reserve_url":"http://www.opentable.com/single.aspx?rid=96964",
      "mobile_reserve_url":"http://mobile.opentable.com/opentable/?restId=96964",
      "image_url":"https://resizer.otstatic.com/v2/profiles/legacy/96964.jpg"
   },
   {
      "id":106273,
      "name":"Phil’s Italian Steak House",
      "address":"3300 Las Vegas Blvd South",
      "city":"Las Vegas",
      "state":"NV",
      "area":"Las Vegas",
      "postal_code":"89109",
      "country":"US",
      "phone":"8662863809",
      "lat":36.12403,
      "long":-115.171172,
      "price":4,
      "cuisines":[
                  "French",
                  "International"
                  ],
      "reserve_url":"http://www.opentable.com/single.aspx?rid=106273",
      "mobile_reserve_url":"http://mobile.opentable.com/opentable/?restId=106273",
      "image_url":"https://resizer.otstatic.com/v2/profiles/legacy/106273.jpg"
   },
   {
      "id":55747,
      "name":"Social House",
      "address":"3720 S. Las Vegas Blvd. South #241",
      "city":"Las Vegas",
      "state":"NV",
      "area":"Las Vegas",
      "postal_code":"89158",
      "country":"US",
      "phone":"7027361122",
      "lat":36.108546,
      "long":-115.173165,
      "price":4,
      "cuisines":[
                  "Burgers",
                  "American"
                  ],
      "reserve_url":"http://www.opentable.com/single.aspx?rid=55747",
      "mobile_reserve_url":"http://mobile.opentable.com/opentable/?restId=55747",
      "image_url":"https://resizer.otstatic.com/v2/profiles/legacy/55747.jpg"
   },
   {
      "id":90889,
      "name":"BARMASA - Aria",
      "address":"3730 Las Vegas Blvd South",
      "city":"Las Vegas",
      "state":"NV",
      "area":"Las Vegas",
      "postal_code":"89109",
      "country":"US",
      "phone":"8772302742",
      "lat":36.106661,
      "long":-115.176909,
      "price":4,
      "cuisines":[
                  "Wine",
                  "Bar"
                  ],
      "reserve_url":"http://www.opentable.com/single.aspx?rid=90889",
      "mobile_reserve_url":"http://mobile.opentable.com/opentable/?restId=90889",
      "image_url":"https://resizer.otstatic.com/v2/profiles/legacy/90889.jpg"
   },
   {
      "id":149269,
      "name":"Made.LV",
      "address":"450 S Rampart Blvd Ste 120",
      "city":"Las Vegas",
      "state":"NV",
      "area":"Las Vegas",
      "postal_code":"89145",
      "country":"US",
      "phone":"7027222000",
      "lat":36.167092,
      "long":-115.286925,
      "price":2,
      "cuisines":[
                  "Latin",
                  "Cuban",
                  "Tapas"
                  ],
      "reserve_url":"http://www.opentable.com/single.aspx?rid=149269",
      "mobile_reserve_url":"http://mobile.opentable.com/opentable/?restId=149269",
      "image_url":"https://resizer.otstatic.com/v2/profiles/legacy/149269.jpg"
   },
   {
      "id":146140,
      "name":"The Griddle Café - SLS Las Vegas",
      "address":"2535 Las Vegas Blvd South",
      "city":"Las Vegas",
      "state":"NV",
      "area":"Las Vegas",
      "postal_code":"89109",
      "country":"US",
      "phone":"855-761-7757x",
      "lat":36.142756,
      "long":-115.157874,
      "price":2,
      "cuisines":[
                  "Wine",
                  "Tapas"
                  ],
      "reserve_url":"http://www.opentable.com/single.aspx?rid=146140",
      "mobile_reserve_url":"http://mobile.opentable.com/opentable/?restId=146140",
      "image_url":"https://resizer.otstatic.com/v2/profiles/legacy/146140.jpg"
   },
   {
      "id":96967,
      "name":"Ruth's Chris Steak House - Harrah's Las Vegas",
      "address":"3475 Las Vegas Blvd South",
      "city":"Las Vegas",
      "state":"NV",
      "area":"Las Vegas",
      "postal_code":"89109",
      "country":"US",
      "phone":"7023695000",
      "lat":36.119859,
      "long":-115.17238,
      "price":4,
      "cuisines":[
                  "Brewery",
                  "Prime Rib",
                  "American"
                  ],
      "reserve_url":"http://www.opentable.com/single.aspx?rid=96967",
      "mobile_reserve_url":"http://mobile.opentable.com/opentable/?restId=96967",
      "image_url":"https://resizer.otstatic.com/v2/profiles/legacy/96967.jpg"
   },
   {
      "id":1655,
      "name":"Lupo by Wolfgang",
      "address":"3950 Las Vegas Boulevard, South",
      "city":"Las Vegas",
      "state":"NV",
      "area":"Las Vegas",
      "postal_code":"89119",
      "country":"US",
      "phone":"7027405522",
      "lat":36.092318,
      "long":-115.17252,
      "price":3,
      "cuisines":[
                  "Brewery",
                  "Seafood",
                  "Wine"
                  ],
      "reserve_url":"http://www.opentable.com/single.aspx?rid=1655",
      "mobile_reserve_url":"http://mobile.opentable.com/opentable/?restId=1655",
      "image_url":"https://resizer.otstatic.com/v2/profiles/legacy/1655.jpg"
   },
   {
      "id":1883,
      "name":"Canonita",
      "address":"3377 Las Vegas Blvd.",
      "city":"Las Vegas",
      "state":"NV",
      "area":"Las Vegas",
      "postal_code":"89109",
      "country":"US",
      "phone":"7024143773",
      "lat":36.122343,
      "long":-115.17141,
      "price":2,
      "cuisines":[
                  "Italian",
                  "Seafood",
                  "Steak"
                  ],
      "reserve_url":"http://www.opentable.com/single.aspx?rid=1883",
      "mobile_reserve_url":"http://mobile.opentable.com/opentable/?restId=1883",
      "image_url":"https://resizer.otstatic.com/v2/profiles/legacy/1883.jpg"
   },
   {
      "id":95257,
      "name":"Wine 5 Cafe",
      "address":"3250 N Tenaya",
      "city":"Las Vegas",
      "state":"NV",
      "area":"Las Vegas",
      "postal_code":"89129",
      "country":"US",
      "phone":"7024629463",
      "lat":36.219859,
      "long":-115.250331,
      "price":2,
      "cuisines":[
                  "Mediterranean",
                  "Comfort"
                  ],
      "reserve_url":"http://www.opentable.com/single.aspx?rid=95257",
      "mobile_reserve_url":"http://mobile.opentable.com/opentable/?restId=95257",
      "image_url":"https://resizer.otstatic.com/v2/profiles/legacy/95257.jpg"
   },
   {
      "id":6684,
      "name":"McCormick & Schmick's Seafood - Las Vegas",
      "address":"335 Hughes Center Drive",
      "city":"Las Vegas",
      "state":"NV",
      "area":"Las Vegas",
      "postal_code":"89169",
      "country":"US",
      "phone":"7028369000x",
      "lat":36.115074,
      "long":-115.157498,
      "price":3,
      "cuisines":[
                  "French",
                  "International"
                  ],
      "reserve_url":"http://www.opentable.com/single.aspx?rid=6684",
      "mobile_reserve_url":"http://mobile.opentable.com/opentable/?restId=6684",
      "image_url":"https://resizer.otstatic.com/v2/profiles/legacy/6684.jpg"
   },
   {
      "id":18394,
      "name":"Morels Steakhouse & Bistro - Las Vegas",
      "address":"3325 Las Vegas Boulevard South",
      "city":"Las Vegas",
      "state":"NV",
      "area":"Las Vegas",
      "postal_code":"89109",
      "country":"US",
      "phone":"7026076333",
      "lat":36.122385,
      "long":-115.168712,
      "price":3,
      "cuisines":[
                  "Latin",
                  "Bistro"
                  ],
      "reserve_url":"http://www.opentable.com/single.aspx?rid=18394",
      "mobile_reserve_url":"http://mobile.opentable.com/opentable/?restId=18394",
      "image_url":"https://resizer.otstatic.com/v2/profiles/legacy/18394.jpg"
   },
   {
      "id":91012,
      "name":"Pearl - MGM Grand",
      "address":"3799 Las Vegas Blvd South",
      "city":"Las Vegas",
      "state":"NV",
      "area":"Las Vegas",
      "postal_code":"89109",
      "country":"US",
      "phone":"7028917380x",
      "lat":36.101197,
      "long":-115.172426,
      "price":3,
      "cuisines":[
                  "Seafood",
                  "Steak"
                  ],
      "reserve_url":"http://www.opentable.com/single.aspx?rid=91012",
      "mobile_reserve_url":"http://mobile.opentable.com/opentable/?restId=91012",
      "image_url":"https://resizer.otstatic.com/v2/profiles/legacy/91012.jpg"
   },
   {
      "id":2028,
      "name":"Mon Ami Gabi - Las Vegas - Main Dining Room",
      "address":"3655 Las Vegas Blvd. South",
      "city":"Las Vegas",
      "state":"NV",
      "area":"Las Vegas",
      "postal_code":"89109",
      "country":"US",
      "phone":"7029444224",
      "lat":36.112451,
      "long":-115.17296,
      "price":3,
      "cuisines":[
                  "Bar",
                  "Wine"
                  ],
      "reserve_url":"http://www.opentable.com/single.aspx?rid=2028",
      "mobile_reserve_url":"http://mobile.opentable.com/opentable/?restId=2028",
      "image_url":"https://resizer.otstatic.com/v2/profiles/legacy/2028.jpg"
   },
   {
      "id":140863,
      "name":"DB Brasserie - The Venetian",
      "address":"3355 Las Vegas Blvd South",
      "city":"Las Vegas",
      "state":"NV",
      "area":"Las Vegas",
      "postal_code":"89109",
      "country":"US",
      "phone":"7024301235",
      "lat":36.12269,
      "long":-115.170193,
      "price":3,
      "cuisines":[
                  "Organic",
                  "Seafood"
                  ],
      "reserve_url":"http://www.opentable.com/single.aspx?rid=140863",
      "mobile_reserve_url":"http://mobile.opentable.com/opentable/?restId=140863",
      "image_url":"https://resizer.otstatic.com/v2/profiles/legacy/140863.jpg"
   },
   {
      "id":113863,
      "name":"Chayo Mexican Kitchen + Tequila Bar",
      "address":"3545 Las Vegas Blvd.",
      "city":"Las Vegas",
      "state":"NV",
      "area":"Las Vegas",
      "postal_code":"89109",
      "country":"US",
      "phone":"7026913773x",
      "lat":36.117661,
      "long":-115.172783,
      "price":2,
      "cuisines":[
                  "Wine",
                  "Seafood",
                  "Burgers"
                  ],
      "reserve_url":"http://www.opentable.com/single.aspx?rid=113863",
      "mobile_reserve_url":"http://mobile.opentable.com/opentable/?restId=113863",
      "image_url":"https://resizer.otstatic.com/v2/profiles/legacy/113863.jpg"
   },
   {
      "id":5689,
      "name":"Hofbrauhaus - Las Vegas",
      "address":"4510 Paradise Rd",
      "city":"Las Vegas",
      "state":"NV",
      "area":"Las Vegas",
      "postal_code":"89169",
      "country":"US",
      "phone":"7028532337x",
      "lat":36.108,
      "long":-115.152,
      "price":2,
      "cuisines":[
                  "Organic",
                  "Californian",
                  "Tapas"
                  ],
      "reserve_url":"http://www.opentable.com/single.aspx?rid=5689",
      "mobile_reserve_url":"http://mobile.opentable.com/opentable/?restId=5689",
      "image_url":"https://resizer.otstatic.com/v2/profiles/legacy/5689.jpg"
   },
   {
      "id":84277,
      "name":"McCall’s Heartland Grill – Stratosphere Hotel",
      "address":"2000 Las Vegas Blvd. South",
      "city":"Las Vegas",
      "state":"NV",
      "area":"Las Vegas",
      "postal_code":"89104",
      "country":"US",
      "phone":"7023807711",
      "lat":36.147371,
      "long":-115.155365,
      "price":2,
      "cuisines":[
                  "Wine",
                  "Tapas"
                  ],
      "reserve_url":"http://www.opentable.com/single.aspx?rid=84277",
      "mobile_reserve_url":"http://mobile.opentable.com/opentable/?restId=84277",
      "image_url":"https://resizer.otstatic.com/v2/profiles/legacy/84277.jpg"
   },
   {
      "id":55744,
      "name":"Beach Cafe - Tropicana Las Vegas",
      "address":"3801 Las Vegas Blvd South",
      "city":"Las Vegas",
      "state":"NV",
      "area":"Las Vegas",
      "postal_code":"89109",
      "country":"US",
      "phone":"7027392636x",
      "lat":36.099044,
      "long":-115.170452,
      "price":3,
      "cuisines":[
                  "Pizza",
                  "Italian"
                  ],
      "reserve_url":"http://www.opentable.com/single.aspx?rid=55744",
      "mobile_reserve_url":"http://mobile.opentable.com/opentable/?restId=55744",
      "image_url":"https://resizer.otstatic.com/v2/profiles/legacy/55744.jpg"
   },
   {
      "id":74671,
      "name":"Fogo de Chao Brazilian Steakhouse - Las Vegas",
      "address":"360 E. Flamingo Rd",
      "city":"Las Vegas",
      "state":"NV",
      "area":"Las Vegas",
      "postal_code":"89169",
      "country":"US",
      "phone":"7024314500",
      "lat":36.115101,
      "long":-115.15654,
      "price":3,
      "cuisines":[
                  "International",
                  "French"
                  ],
      "reserve_url":"http://www.opentable.com/single.aspx?rid=74671",
      "mobile_reserve_url":"http://mobile.opentable.com/opentable/?restId=74671",
      "image_url":"https://resizer.otstatic.com/v2/profiles/legacy/74671.jpg"
   },
   {
      "id":85840,
      "name":"SEA Vegas: The Thai Experience",
      "address":"3645 Las Vegas Blvd South",
      "city":"Las Vegas",
      "state":"NV",
      "area":"Las Vegas",
      "postal_code":"89109",
      "country":"US",
      "phone":"7029673888x",
      "lat":36.113428,
      "long":-115.168517,
      "price":2,
      "cuisines":[
                  "Organic",
                  "Seafood",
                  "Italian"
                  ],
      "reserve_url":"http://www.opentable.com/single.aspx?rid=85840",
      "mobile_reserve_url":"http://mobile.opentable.com/opentable/?restId=85840",
      "image_url":"https://resizer.otstatic.com/v2/profiles/legacy/85840.jpg"
   },
   {
      "id":139285,
      "name":"Giada - The Cromwell",
      "address":"3595 Las Vegas Blvd South",
      "city":"Las Vegas",
      "state":"NV",
      "area":"Las Vegas",
      "postal_code":"89109",
      "country":"US",
      "phone":"8444262766",
      "lat":36.115275,
      "long":-115.172253,
      "price":4,
      "cuisines":[
                  "Steak",
                  "Seafood",
                  "Italian"
                  ],
      "reserve_url":"http://www.opentable.com/single.aspx?rid=139285",
      "mobile_reserve_url":"http://mobile.opentable.com/opentable/?restId=139285",
      "image_url":"https://resizer.otstatic.com/v2/profiles/legacy/139285.jpg"
   },
   {
      "id":144655,
      "name":"Gordon Biersch - Las Vegas",
      "address":"3987 Paradise Rd",
      "city":"Las Vegas",
      "state":"NV",
      "area":"Las Vegas",
      "postal_code":"89169",
      "country":"US",
      "phone":"7023125247",
      "lat":36.116902,
      "long":-115.15578,
      "price":2,
      "cuisines":[
                  "Southern"
                  ],
      "reserve_url":"http://www.opentable.com/single.aspx?rid=144655",
      "mobile_reserve_url":"http://mobile.opentable.com/opentable/?restId=144655",
      "image_url":"https://resizer.otstatic.com/v2/profiles/legacy/144655.jpg"
   }
]